[{"Comune": "Chieti", "Provincia": "CHIETI", "Regione": "Abruzzo", "Nome": "Ospedale Clinicizzato Ss. Annunziata", "Anno inserimento": "2013", "OpenStreetMapID": "283246152", "Longitudine": "14.1531745", "Latitudine": "42.3659729"}, {"Comune": "Castel del Monte", "Provincia": "L'AQUILA", "Regione": "Abruzzo", "Nome": "Ambulatorio Medico", "Anno inserimento": "2014", "OpenStreetMapID": "2725529566", "Longitudine": "13.725294", "Latitudine": "42.365135"}, {"Comune": "Castel di Sangro", "Provincia": "L'AQUILA", "Regione": "Abruzzo", "Nome": "Presidio Ospedaliero", "Anno inserimento": "2011", "OpenStreetMapID": "1497306398", "Longitudine": "14.1166386", "Latitudine": "41.7760322999999"}, {"Comune": "L'Aquila", "Provincia": "L'AQUILA", "Regione": "Abruzzo", "Nome": "San Salvatore", "Anno inserimento": "2013", "OpenStreetMapID": "309825644", "Longitudine": "13.3536138999999", "Latitudine": "42.3668122999999"}, {"Comune": "L'Aquila", "Provincia": "L'AQUILA", "Regione": "Abruzzo", "Nome": "Villa Letizia", "Anno inserimento": "2015", "OpenStreetMapID": "3776497182", "Longitudine": "13.2955887", "Latitudine": "42.3761911"}, {"Comune": "Pescocostanzo", "Provincia": "L'AQUILA", "Regione": "Abruzzo", "Nome": "Guardia Medica", "Anno inserimento": "2014", "OpenStreetMapID": "2956884002", "Longitudine": "14.0648765", "Latitudine": "41.8869941"}, {"Comune": "Pratola Peligna", "Provincia": "L'AQUILA", "Regione": "Abruzzo", "Nome": "Croce Verde", "Anno inserimento": "2012", "OpenStreetMapID": "1604313268", "Longitudine": "13.8715157", "Latitudine": "42.0958985999999"}, {"Comune": "Penne", "Provincia": "PESCARA", "Regione": "Abruzzo", "Nome": "", "Anno inserimento": "2008", "OpenStreetMapID": "314756569", "Longitudine": "13.9190536999999", "Latitudine": "42.4503197"}, {"Comune": "Popoli", "Provincia": "PESCARA", "Regione": "Abruzzo", "Nome": "", "Anno inserimento": "2010", "OpenStreetMapID": "916151644", "Longitudine": "13.8274298", "Latitudine": "42.1763517999999"}, {"Comune": "Silvi", "Provincia": "TERAMO", "Regione": "Abruzzo", "Nome": "Presidio sanitario Silvi", "Anno inserimento": "2014", "OpenStreetMapID": "2962649633", "Longitudine": "14.0955482", "Latitudine": "42.5757668999999"}, {"Comune": "Matera", "Provincia": "MATERA", "Regione": "Basilicata", "Nome": "Guardia Medica", "Anno inserimento": "2013", "OpenStreetMapID": "2506049647", "Longitudine": "16.5893672", "Latitudine": "40.6782115999999"}, {"Comune": "Pisticci", "Provincia": "MATERA", "Regione": "Basilicata", "Nome": "Ospedale di Tinchi", "Anno inserimento": "2013", "OpenStreetMapID": "2442861478", "Longitudine": "16.6476907999999", "Latitudine": "40.3604071999999"}, {"Comune": "Tricarico", "Provincia": "MATERA", "Regione": "Basilicata", "Nome": "", "Anno inserimento": "2016", "OpenStreetMapID": "3923334792", "Longitudine": "16.148695", "Latitudine": "40.6180062999999"}, {"Comune": "Forenza", "Provincia": "POTENZA", "Regione": "Basilicata", "Nome": "Pronto Soccorso 118", "Anno inserimento": "2014", "OpenStreetMapID": "3213388604", "Longitudine": "15.859678", "Latitudine": "40.8566761"}, {"Comune": "Potenza", "Provincia": "POTENZA", "Regione": "Basilicata", "Nome": "Croce Rossa Italiana", "Anno inserimento": "2015", "OpenStreetMapID": "3739240400", "Longitudine": "15.8286253", "Latitudine": "40.6483515999999"}, {"Comune": "Senise", "Provincia": "POTENZA", "Regione": "Basilicata", "Nome": "ASL", "Anno inserimento": "2014", "OpenStreetMapID": "3127463474", "Longitudine": "16.2891252", "Latitudine": "40.147868"}, {"Comune": "Venosa", "Provincia": "POTENZA", "Regione": "Basilicata", "Nome": "", "Anno inserimento": "2009", "OpenStreetMapID": "394140270", "Longitudine": "15.8083677999999", "Latitudine": "40.9596147"}, {"Comune": "Maida", "Provincia": "CATANZARO", "Regione": "Calabria", "Nome": "Ambulatorio Medico", "Anno inserimento": "2015", "OpenStreetMapID": "2549611958", "Longitudine": "16.4076752", "Latitudine": "38.8887683"}, {"Comune": "Acri", "Provincia": "COSENZA", "Regione": "Calabria", "Nome": "Presidio ospedalaliere Beato Angelo", "Anno inserimento": "2014", "OpenStreetMapID": "2358340869", "Longitudine": "16.3893333", "Latitudine": "39.4914873"}, {"Comune": "Campana", "Provincia": "COSENZA", "Regione": "Calabria", "Nome": "", "Anno inserimento": "2012", "OpenStreetMapID": "2056879089", "Longitudine": "16.8291751", "Latitudine": "39.4123899"}, {"Comune": "Cosenza", "Provincia": "COSENZA", "Regione": "Calabria", "Nome": "Pronto Soccorso 118", "Anno inserimento": "2011", "OpenStreetMapID": "1409086932", "Longitudine": "16.2490369", "Latitudine": "39.2930342"}, {"Comune": "Luzzi", "Provincia": "COSENZA", "Regione": "Calabria", "Nome": "Poliambulatorio", "Anno inserimento": "2014", "OpenStreetMapID": "2272013482", "Longitudine": "16.2869891", "Latitudine": "39.4485466"}, {"Comune": "Praia a Mare", "Provincia": "COSENZA", "Regione": "Calabria", "Nome": "", "Anno inserimento": "2014", "OpenStreetMapID": "3134830524", "Longitudine": "15.7801509", "Latitudine": "39.9175627999999"}, {"Comune": "San Fili", "Provincia": "COSENZA", "Regione": "Calabria", "Nome": "Casa di cura Villa Igea", "Anno inserimento": "2015", "OpenStreetMapID": "3706948465", "Longitudine": "16.1544631999999", "Latitudine": "39.3443571999999"}, {"Comune": "San Giovanni in Fiore", "Provincia": "COSENZA", "Regione": "Calabria", "Nome": "Pronto Soccorso 118", "Anno inserimento": "2012", "OpenStreetMapID": "1863503079", "Longitudine": "16.6978337", "Latitudine": "39.2508770999999"}, {"Comune": "Villapiana", "Provincia": "COSENZA", "Regione": "Calabria", "Nome": "Farmacia D.ssa De Franco Rosa", "Anno inserimento": "2015", "OpenStreetMapID": "3623935700", "Longitudine": "16.4550118", "Latitudine": "39.8450475"}, {"Comune": "Crotone", "Provincia": "CROTONE", "Regione": "Calabria", "Nome": "ASP", "Anno inserimento": "2014", "OpenStreetMapID": "1584061157", "Longitudine": "17.1134306999999", "Latitudine": "39.0842737999999"}, {"Comune": "Locri", "Provincia": "REGGIO CALABRIA", "Regione": "Calabria", "Nome": "Ospedale di Locri", "Anno inserimento": "2009", "OpenStreetMapID": "447451624", "Longitudine": "16.2451443", "Latitudine": "38.2355114"}, {"Comune": "Palmi", "Provincia": "REGGIO CALABRIA", "Regione": "Calabria", "Nome": "Guardia Medica", "Anno inserimento": "2012", "OpenStreetMapID": "1717736577", "Longitudine": "15.8653719", "Latitudine": "38.3978575"}, {"Comune": "Pazzano", "Provincia": "REGGIO CALABRIA", "Regione": "Calabria", "Nome": "Guardia Medica", "Anno inserimento": "2013", "OpenStreetMapID": "1667062959", "Longitudine": "16.4533866", "Latitudine": "38.4746747"}, {"Comune": "Polistena", "Provincia": "REGGIO CALABRIA", "Regione": "Calabria", "Nome": "Presidio Ospedaliero \u2018Santa Maria degli Ungheresi\u2019", "Anno inserimento": "2014", "OpenStreetMapID": "2758237665", "Longitudine": "16.0763122", "Latitudine": "38.4096412"}, {"Comune": "Taurianova", "Provincia": "REGGIO CALABRIA", "Regione": "Calabria", "Nome": "Ospedale di Taurianova", "Anno inserimento": "2011", "OpenStreetMapID": "1362136151", "Longitudine": "16.0060956999999", "Latitudine": "38.3530828"}, {"Comune": "Taurianova", "Provincia": "REGGIO CALABRIA", "Regione": "Calabria", "Nome": "Veterinario", "Anno inserimento": "2013", "OpenStreetMapID": "2431244667", "Longitudine": "16.0146249", "Latitudine": "38.350867"}, {"Comune": "Montella", "Provincia": "AVELLINO", "Regione": "Campania", "Nome": "Misericordia Montella", "Anno inserimento": "2013", "OpenStreetMapID": "1436186943", "Longitudine": "15.0269470999999", "Latitudine": "40.8402059"}, {"Comune": "Solopaca", "Provincia": "BENEVENTO", "Regione": "Campania", "Nome": "Covermark Point camouflage", "Anno inserimento": "2015", "OpenStreetMapID": "3762483426", "Longitudine": "14.5483632", "Latitudine": "41.1923528"}, {"Comune": "Telese", "Provincia": "BENEVENTO", "Regione": "Campania", "Nome": "Fondazione Salvatore Maugeri", "Anno inserimento": "2011", "OpenStreetMapID": "1482097122", "Longitudine": "14.5332206", "Latitudine": "41.2210554999999"}, {"Comune": "Castel Volturno", "Provincia": "CASERTA", "Regione": "Campania", "Nome": "Clinica Pineta Grande", "Anno inserimento": "2013", "OpenStreetMapID": "1759748613", "Longitudine": "13.9530254", "Latitudine": "41.0177388999999"}, {"Comune": "Agerola", "Provincia": "NAPOLI", "Regione": "Campania", "Nome": "Guardia Medica", "Anno inserimento": "2013", "OpenStreetMapID": "2452231029", "Longitudine": "14.5402099", "Latitudine": "40.6305120999999"}, {"Comune": "Arzano", "Provincia": "NAPOLI", "Regione": "Campania", "Nome": "Distretto Sanitario", "Anno inserimento": "2013", "OpenStreetMapID": "2455948307", "Longitudine": "14.2602322", "Latitudine": "40.9108987999999"}, {"Comune": "Boscotrecase", "Provincia": "NAPOLI", "Regione": "Campania", "Nome": "Pronto Soccorso, presidio ospedaliero di Boscotrecase", "Anno inserimento": "2013", "OpenStreetMapID": "2245070714", "Longitudine": "14.4524746", "Latitudine": "40.7671694"}, {"Comune": "Capri", "Provincia": "NAPOLI", "Regione": "Campania", "Nome": "Ospedale G. Capilupi Capri", "Anno inserimento": "2010", "OpenStreetMapID": "717588934", "Longitudine": "14.2368939999999", "Latitudine": "40.549795"}, {"Comune": "Frattaminore", "Provincia": "NAPOLI", "Regione": "Campania", "Nome": "Ospedale di Frattamaggiore San Giovanni di Dio", "Anno inserimento": "2010", "OpenStreetMapID": "944699669", "Longitudine": "14.2714487", "Latitudine": "40.94798"}, {"Comune": "Gragnano", "Provincia": "NAPOLI", "Regione": "Campania", "Nome": "", "Anno inserimento": "2014", "OpenStreetMapID": "3024493627", "Longitudine": "14.5226138", "Latitudine": "40.6955371"}, {"Comune": "Ischia", "Provincia": "NAPOLI", "Regione": "Campania", "Nome": "Istituto di Igiene mentale Buzziconia", "Anno inserimento": "2014", "OpenStreetMapID": "2985999241", "Longitudine": "13.9469513", "Latitudine": "40.7421136"}, {"Comune": "Napoli", "Provincia": "NAPOLI", "Regione": "Campania", "Nome": "AOU Federico II", "Anno inserimento": "2011", "OpenStreetMapID": "1180796146", "Longitudine": "14.2192083999999", "Latitudine": "40.8687589999999"}, {"Comune": "Napoli", "Provincia": "NAPOLI", "Regione": "Campania", "Nome": "Fatebenefratelli", "Anno inserimento": "2011", "OpenStreetMapID": "1563719945", "Longitudine": "14.1999184", "Latitudine": "40.8153"}, {"Comune": "Napoli", "Provincia": "NAPOLI", "Regione": "Campania", "Nome": "Santobono", "Anno inserimento": "2009", "OpenStreetMapID": "434788443", "Longitudine": "14.2317081", "Latitudine": "40.848941"}, {"Comune": "Ottaviano", "Provincia": "NAPOLI", "Regione": "Campania", "Nome": "Casa di cura Trusso", "Anno inserimento": "2014", "OpenStreetMapID": "1457151225", "Longitudine": "14.4705151999999", "Latitudine": "40.848373"}, {"Comune": "Pollena Trocchia", "Provincia": "NAPOLI", "Regione": "Campania", "Nome": "Presidio Sanitario Apicella", "Anno inserimento": "2015", "OpenStreetMapID": "3807622459", "Longitudine": "14.375031", "Latitudine": "40.8519028999999"}, {"Comune": "Portici", "Provincia": "NAPOLI", "Regione": "Campania", "Nome": "Guardia medica", "Anno inserimento": "2013", "OpenStreetMapID": "2311452925", "Longitudine": "14.3448227999999", "Latitudine": "40.8154946"}, {"Comune": "Procida", "Provincia": "NAPOLI", "Regione": "Campania", "Nome": "Ospedale Civile Albano Francescano", "Anno inserimento": "2009", "OpenStreetMapID": "536513332", "Longitudine": "14.0214450999999", "Latitudine": "40.7604388999999"}, {"Comune": "San Gennaro Vesuviano", "Provincia": "NAPOLI", "Regione": "Campania", "Nome": "Casa di cura La Madonnina", "Anno inserimento": "2014", "OpenStreetMapID": "2778473426", "Longitudine": "14.5274927", "Latitudine": "40.8602336"}, {"Comune": "San Giuseppe Vesuviano", "Provincia": "NAPOLI", "Regione": "Campania", "Nome": "Clinica Santa Lucia", "Anno inserimento": "2011", "OpenStreetMapID": "1462176201", "Longitudine": "14.4998188999999", "Latitudine": "40.8329737999999"}, {"Comune": "Vico Equense", "Provincia": "NAPOLI", "Regione": "Campania", "Nome": "Ospedale De Luca e Rossano", "Anno inserimento": "2012", "OpenStreetMapID": "686531791", "Longitudine": "14.4262087", "Latitudine": "40.6608317"}, {"Comune": "Battipaglia", "Provincia": "SALERNO", "Regione": "Campania", "Nome": "Clinica Salus", "Anno inserimento": "2011", "OpenStreetMapID": "1105817999", "Longitudine": "14.9923189", "Latitudine": "40.6056938999999"}, {"Comune": "Battipaglia", "Provincia": "SALERNO", "Regione": "Campania", "Nome": "Santa Maria della Speranza", "Anno inserimento": "2011", "OpenStreetMapID": "1089138199", "Longitudine": "14.9727736999999", "Latitudine": "40.6150969999999"}, {"Comune": "Buonabitacolo", "Provincia": "SALERNO", "Regione": "Campania", "Nome": "Guardia Medica", "Anno inserimento": "2013", "OpenStreetMapID": "2251338911", "Longitudine": "15.6222271", "Latitudine": "40.2699374"}, {"Comune": "Cava de' Tirreni", "Provincia": "SALERNO", "Regione": "Campania", "Nome": "", "Anno inserimento": "2014", "OpenStreetMapID": "3134153141", "Longitudine": "14.7108969", "Latitudine": "40.6948646999999"}, {"Comune": "Celle di Bulgheria", "Provincia": "SALERNO", "Regione": "Campania", "Nome": "Guardia Medica", "Anno inserimento": "2013", "OpenStreetMapID": "1704258810", "Longitudine": "15.4056887", "Latitudine": "40.0948555"}, {"Comune": "Eboli", "Provincia": "SALERNO", "Regione": "Campania", "Nome": "Campolongo Hospital", "Anno inserimento": "2011", "OpenStreetMapID": "1107808246", "Longitudine": "14.9216431", "Latitudine": "40.5241118"}, {"Comune": "Oliveto Citra", "Provincia": "SALERNO", "Regione": "Campania", "Nome": "San Francesco D'Assisi", "Anno inserimento": "2011", "OpenStreetMapID": "1089165860", "Longitudine": "15.2364827", "Latitudine": "40.6909374"}, {"Comune": "Padula", "Provincia": "SALERNO", "Regione": "Campania", "Nome": "Clinica Fischietti", "Anno inserimento": "2013", "OpenStreetMapID": "2251342126", "Longitudine": "15.6500094", "Latitudine": "40.2935810999999"}, {"Comune": "Petina", "Provincia": "SALERNO", "Regione": "Campania", "Nome": "Guardia medica", "Anno inserimento": "2015", "OpenStreetMapID": "3441511946", "Longitudine": "15.3732292", "Latitudine": "40.5327461999999"}, {"Comune": "Polla", "Provincia": "SALERNO", "Regione": "Campania", "Nome": "Ospedaliero \u2018Luigi Curto\u2019", "Anno inserimento": "2015", "OpenStreetMapID": "3441511947", "Longitudine": "15.5001764", "Latitudine": "40.5178228999999"}, {"Comune": "Ravello", "Provincia": "SALERNO", "Regione": "Campania", "Nome": "Amalfi Coast Hospital", "Anno inserimento": "2012", "OpenStreetMapID": "2089784335", "Longitudine": "14.6123181", "Latitudine": "40.6383873999999"}, {"Comune": "Roccadaspide", "Provincia": "SALERNO", "Regione": "Campania", "Nome": "Distretto ASL SA3 di Roccadaspide", "Anno inserimento": "2011", "OpenStreetMapID": "546428302", "Longitudine": "15.1921281", "Latitudine": "40.4256661"}, {"Comune": "Roccadaspide", "Provincia": "SALERNO", "Regione": "Campania", "Nome": "Ospedale di Roccadaspide", "Anno inserimento": "2011", "OpenStreetMapID": "450198361", "Longitudine": "15.1941453", "Latitudine": "40.424833"}, {"Comune": "Torchiara", "Provincia": "SALERNO", "Regione": "Campania", "Nome": "Guardia Medica", "Anno inserimento": "2014", "OpenStreetMapID": "2806634148", "Longitudine": "15.0609385", "Latitudine": "40.3179104"}, {"Comune": "Bologna", "Provincia": "BOLOGNA", "Regione": "Emilia-Romagna", "Nome": "Ambulatorio", "Anno inserimento": "2014", "OpenStreetMapID": "3190973943", "Longitudine": "11.3644883", "Latitudine": "44.4971699999999"}, {"Comune": "Bologna", "Provincia": "BOLOGNA", "Regione": "Emilia-Romagna", "Nome": "Casa di cura Villa Bellombra", "Anno inserimento": "2012", "OpenStreetMapID": "343166389", "Longitudine": "11.3392113", "Latitudine": "44.4810068"}, {"Comune": "Bologna", "Provincia": "BOLOGNA", "Regione": "Emilia-Romagna", "Nome": "Cliniche Dentali", "Anno inserimento": "2015", "OpenStreetMapID": "3810931037", "Longitudine": "11.3657854999999", "Latitudine": "44.4922959"}, {"Comune": "Bologna", "Provincia": "BOLOGNA", "Regione": "Emilia-Romagna", "Nome": "CUP Metropolitano", "Anno inserimento": "2013", "OpenStreetMapID": "1544177765", "Longitudine": "11.3422736", "Latitudine": "44.5019506"}, {"Comune": "Bologna", "Provincia": "BOLOGNA", "Regione": "Emilia-Romagna", "Nome": "Istituto Ortopedico Rizzoli", "Anno inserimento": "2013", "OpenStreetMapID": "1637036206", "Longitudine": "11.3415937", "Latitudine": "44.4808846"}, {"Comune": "Bologna", "Provincia": "BOLOGNA", "Regione": "Emilia-Romagna", "Nome": "Ospedale Militare", "Anno inserimento": "2009", "OpenStreetMapID": "474385036", "Longitudine": "11.3346146", "Latitudine": "44.4980979999999"}, {"Comune": "Bologna", "Provincia": "BOLOGNA", "Regione": "Emilia-Romagna", "Nome": "Poliambulatorio Zanolini", "Anno inserimento": "2016", "OpenStreetMapID": "3979367432", "Longitudine": "11.3573771", "Latitudine": "44.4947828"}, {"Comune": "Bologna", "Provincia": "BOLOGNA", "Regione": "Emilia-Romagna", "Nome": "Villa Erbosa", "Anno inserimento": "2013", "OpenStreetMapID": "440950148", "Longitudine": "11.3429924", "Latitudine": "44.5220546999999"}, {"Comune": "Bologna", "Provincia": "BOLOGNA", "Regione": "Emilia-Romagna", "Nome": "Villa Regina", "Anno inserimento": "2009", "OpenStreetMapID": "527877200", "Longitudine": "11.3487366", "Latitudine": "44.4808495999999"}, {"Comune": "Bologna", "Provincia": "BOLOGNA", "Regione": "Emilia-Romagna", "Nome": "Villa Torri (ospedale privato)", "Anno inserimento": "2016", "OpenStreetMapID": "3982181498", "Longitudine": "11.3578055", "Latitudine": "44.4961394999999"}, {"Comune": "Bologna", "Provincia": "BOLOGNA", "Regione": "Emilia-Romagna", "Nome": "", "Anno inserimento": "2016", "OpenStreetMapID": "3942688743", "Longitudine": "11.3432172999999", "Latitudine": "44.5039911"}, {"Comune": "Budrio", "Provincia": "BOLOGNA", "Regione": "Emilia-Romagna", "Nome": "Centro Protesi INAIL", "Anno inserimento": "2012", "OpenStreetMapID": "1639926848", "Longitudine": "11.5085877", "Latitudine": "44.5340915"}, {"Comune": "Casalecchio di Reno", "Provincia": "BOLOGNA", "Regione": "Emilia-Romagna", "Nome": "Villa Chiara", "Anno inserimento": "2012", "OpenStreetMapID": "1653392145", "Longitudine": "11.2861572999999", "Latitudine": "44.4825779"}, {"Comune": "Castel San Pietro Terme", "Provincia": "BOLOGNA", "Regione": "Emilia-Romagna", "Nome": "Ospedale di Castel San Pietro Terme", "Anno inserimento": "2013", "OpenStreetMapID": "1631842426", "Longitudine": "11.5923048", "Latitudine": "44.3990411999999"}, {"Comune": "Castiglione dei Pepoli", "Provincia": "BOLOGNA", "Regione": "Emilia-Romagna", "Nome": "Casa di cura / Primo intervento", "Anno inserimento": "2015", "OpenStreetMapID": "3801840737", "Longitudine": "11.1556529", "Latitudine": "44.1406161"}, {"Comune": "Crevalcore", "Provincia": "BOLOGNA", "Regione": "Emilia-Romagna", "Nome": "", "Anno inserimento": "2012", "OpenStreetMapID": "2014837941", "Longitudine": "11.1487914", "Latitudine": "44.7209568999999"}, {"Comune": "Crevalcore", "Provincia": "BOLOGNA", "Regione": "Emilia-Romagna", "Nome": "", "Anno inserimento": "2013", "OpenStreetMapID": "2014837942", "Longitudine": "11.1505916", "Latitudine": "44.7213623"}, {"Comune": "Galliera", "Provincia": "BOLOGNA", "Regione": "Emilia-Romagna", "Nome": "", "Anno inserimento": "2012", "OpenStreetMapID": "1657346532", "Longitudine": "11.4361615", "Latitudine": "44.741964"}, {"Comune": "Galliera", "Provincia": "BOLOGNA", "Regione": "Emilia-Romagna", "Nome": "", "Anno inserimento": "2012", "OpenStreetMapID": "1657346929", "Longitudine": "11.4352066", "Latitudine": "44.7407714"}, {"Comune": "Imola", "Provincia": "BOLOGNA", "Regione": "Emilia-Romagna", "Nome": "Montecatone Rehabilitation Institute", "Anno inserimento": "2013", "OpenStreetMapID": "827782011", "Longitudine": "11.634473", "Latitudine": "44.3483105999999"}, {"Comune": "Imola", "Provincia": "BOLOGNA", "Regione": "Emilia-Romagna", "Nome": "Polo Territoriale Citt\u00e0 di Imola (Ospedale Vecchio)", "Anno inserimento": "2013", "OpenStreetMapID": "246493812", "Longitudine": "11.7048448999999", "Latitudine": "44.3550334999999"}, {"Comune": "Loiano", "Provincia": "BOLOGNA", "Regione": "Emilia-Romagna", "Nome": "Ospedale di Loiano", "Anno inserimento": "2010", "OpenStreetMapID": "691691088", "Longitudine": "11.3248823", "Latitudine": "44.2670967999999"}, {"Comune": "San Giovanni in Persiceto", "Provincia": "BOLOGNA", "Regione": "Emilia-Romagna", "Nome": "Ospedale Santissimo Salvatore", "Anno inserimento": "2012", "OpenStreetMapID": "412480085", "Longitudine": "11.1949352999999", "Latitudine": "44.632486"}, {"Comune": "Vergato", "Provincia": "BOLOGNA", "Regione": "Emilia-Romagna", "Nome": "Ospedale di Vergato", "Anno inserimento": "2010", "OpenStreetMapID": "811406978", "Longitudine": "11.1097290999999", "Latitudine": "44.2816357"}, {"Comune": "Argenta", "Provincia": "FERRARA", "Regione": "Emilia-Romagna", "Nome": "Ospedale Civile Mazzolani-Vandini", "Anno inserimento": "2013", "OpenStreetMapID": "2335579801", "Longitudine": "11.8346841", "Latitudine": "44.6118547"}, {"Comune": "Bondeno", "Provincia": "FERRARA", "Regione": "Emilia-Romagna", "Nome": "Ospedale Fratelli Borselli", "Anno inserimento": "2015", "OpenStreetMapID": "3361796794", "Longitudine": "11.4143206999999", "Latitudine": "44.8802925"}, {"Comune": "Comacchio", "Provincia": "FERRARA", "Regione": "Emilia-Romagna", "Nome": "Ospedale San Camillo", "Anno inserimento": "2013", "OpenStreetMapID": "1045853384", "Longitudine": "12.1901674999999", "Latitudine": "44.6958619999999"}, {"Comune": "Copparo", "Provincia": "FERRARA", "Regione": "Emilia-Romagna", "Nome": "Ospedale San Giuseppe", "Anno inserimento": "2013", "OpenStreetMapID": "2321777045", "Longitudine": "11.8286256", "Latitudine": "44.8955652"}, {"Comune": "Ferrara", "Provincia": "FERRARA", "Regione": "Emilia-Romagna", "Nome": "Centro di Medicina dello Sport", "Anno inserimento": "2014", "OpenStreetMapID": "2627789359", "Longitudine": "11.6121009999999", "Latitudine": "44.8499058"}, {"Comune": "Ferrara", "Provincia": "FERRARA", "Regione": "Emilia-Romagna", "Nome": "Guardia Medica - Servizi socio sanitari", "Anno inserimento": "2013", "OpenStreetMapID": "2107657889", "Longitudine": "11.59984", "Latitudine": "44.8188225"}, {"Comune": "Lagosanto", "Provincia": "FERRARA", "Regione": "Emilia-Romagna", "Nome": "Ospedale del Delta", "Anno inserimento": "2013", "OpenStreetMapID": "296858314", "Longitudine": "12.1224369", "Latitudine": "44.7757063"}, {"Comune": "Portomaggiore", "Provincia": "FERRARA", "Regione": "Emilia-Romagna", "Nome": "Ospedale Carlo Eppi", "Anno inserimento": "2013", "OpenStreetMapID": "2328753349", "Longitudine": "11.8107019999999", "Latitudine": "44.7001472"}, {"Comune": "Tresigallo", "Provincia": "FERRARA", "Regione": "Emilia-Romagna", "Nome": "", "Anno inserimento": "2012", "OpenStreetMapID": "2076093265", "Longitudine": "11.8977238", "Latitudine": "44.8142688"}, {"Comune": "Cesenatico", "Provincia": "FORLI'", "Regione": "Emilia-Romagna", "Nome": "Ospedale di Cesenatico", "Anno inserimento": "2013", "OpenStreetMapID": "2163556775", "Longitudine": "12.4094093", "Latitudine": "44.1895874"}, {"Comune": "Forli'", "Provincia": "FORLI'", "Regione": "Emilia-Romagna", "Nome": "Pronto Soccorso 118", "Anno inserimento": "2012", "OpenStreetMapID": "303496338", "Longitudine": "12.0188659", "Latitudine": "44.2071121"}, {"Comune": "Forlimpopoli", "Provincia": "FORLI'", "Regione": "Emilia-Romagna", "Nome": "", "Anno inserimento": "2010", "OpenStreetMapID": "725632990", "Longitudine": "12.1278935", "Latitudine": "44.1894694"}, {"Comune": "Mercato Saraceno", "Provincia": "FORLI'", "Regione": "Emilia-Romagna", "Nome": "Ospedale Capelli", "Anno inserimento": "2012", "OpenStreetMapID": "1713423344", "Longitudine": "12.1947926", "Latitudine": "43.956301"}, {"Comune": "Santa Sofia", "Provincia": "FORLI'", "Regione": "Emilia-Romagna", "Nome": "", "Anno inserimento": "2010", "OpenStreetMapID": "608646294", "Longitudine": "11.9016441", "Latitudine": "43.9429048"}, {"Comune": "Savignano sul Rubicone", "Provincia": "FORLI'", "Regione": "Emilia-Romagna", "Nome": "", "Anno inserimento": "2010", "OpenStreetMapID": "611819914", "Longitudine": "12.4040304999999", "Latitudine": "44.0928195999999"}, {"Comune": "Mirandola", "Provincia": "MODENA", "Regione": "Emilia-Romagna", "Nome": "Santa Maria Bianca", "Anno inserimento": "2012", "OpenStreetMapID": "1775959558", "Longitudine": "11.0646339", "Latitudine": "44.8833825999999"}, {"Comune": "Modena", "Provincia": "MODENA", "Regione": "Emilia-Romagna", "Nome": "Casa di cura Villa Igea", "Anno inserimento": "2013", "OpenStreetMapID": "2151903121", "Longitudine": "10.8890923", "Latitudine": "44.6152160999999"}, {"Comune": "Modena", "Provincia": "MODENA", "Regione": "Emilia-Romagna", "Nome": "Ospedale sant'Agostino-Estense", "Anno inserimento": "2010", "OpenStreetMapID": "973891908", "Longitudine": "10.8723624", "Latitudine": "44.6045965"}, {"Comune": "Modena", "Provincia": "MODENA", "Regione": "Emilia-Romagna", "Nome": "Pronto Soccorso 118", "Anno inserimento": "2012", "OpenStreetMapID": "1538402646", "Longitudine": "10.9449217999999", "Latitudine": "44.6350005999999"}, {"Comune": "Modena", "Provincia": "MODENA", "Regione": "Emilia-Romagna", "Nome": "Pronto Soccorso 118", "Anno inserimento": "2013", "OpenStreetMapID": "2157172449", "Longitudine": "10.872077", "Latitudine": "44.6059935999999"}, {"Comune": "Modena", "Provincia": "MODENA", "Regione": "Emilia-Romagna", "Nome": "Villa Rosa", "Anno inserimento": "2012", "OpenStreetMapID": "1591090156", "Longitudine": "10.9192429", "Latitudine": "44.6311976"}, {"Comune": "Vignola", "Provincia": "MODENA", "Regione": "Emilia-Romagna", "Nome": "", "Anno inserimento": "2010", "OpenStreetMapID": "660681404", "Longitudine": "11.0107506", "Latitudine": "44.4828857999999"}, {"Comune": "Borgo Val di Taro", "Provincia": "PARMA", "Regione": "Emilia-Romagna", "Nome": "Santa Maria", "Anno inserimento": "2014", "OpenStreetMapID": "1455072062", "Longitudine": "9.7650202", "Latitudine": "44.4913537999999"}, {"Comune": "Corniglio", "Provincia": "PARMA", "Regione": "Emilia-Romagna", "Nome": "", "Anno inserimento": "2011", "OpenStreetMapID": "1253859525", "Longitudine": "10.0887647", "Latitudine": "44.4741550999999"}, {"Comune": "Fidenza", "Provincia": "PARMA", "Regione": "Emilia-Romagna", "Nome": "Assistenza Pubblica Fidenza", "Anno inserimento": "2014", "OpenStreetMapID": "2582319720", "Longitudine": "10.0387356", "Latitudine": "44.8485979"}, {"Comune": "Fidenza", "Provincia": "PARMA", "Regione": "Emilia-Romagna", "Nome": "Italian Red Cross", "Anno inserimento": "2013", "OpenStreetMapID": "2582316110", "Longitudine": "10.071196", "Latitudine": "44.856799"}, {"Comune": "Fidenza", "Provincia": "PARMA", "Regione": "Emilia-Romagna", "Nome": "Ospedale di Vaio", "Anno inserimento": "2013", "OpenStreetMapID": "441922074", "Longitudine": "10.0410822999999", "Latitudine": "44.8479985999999"}, {"Comune": "Fontanellato", "Provincia": "PARMA", "Regione": "Emilia-Romagna", "Nome": "Centro Cardinal Ferrari", "Anno inserimento": "2009", "OpenStreetMapID": "411882584", "Longitudine": "10.1777926999999", "Latitudine": "44.8804537999999"}, {"Comune": "Fornovo di Taro", "Provincia": "PARMA", "Regione": "Emilia-Romagna", "Nome": "", "Anno inserimento": "2012", "OpenStreetMapID": "1933333732", "Longitudine": "10.1042245", "Latitudine": "44.6941605999999"}, {"Comune": "Medesano", "Provincia": "PARMA", "Regione": "Emilia-Romagna", "Nome": "Croce rossa di Medesano", "Anno inserimento": "2012", "OpenStreetMapID": "1748577183", "Longitudine": "10.1372050999999", "Latitudine": "44.7590469"}, {"Comune": "Parma", "Provincia": "PARMA", "Regione": "Emilia-Romagna", "Nome": "Ospedale Maggiore", "Anno inserimento": "2012", "OpenStreetMapID": "441349778", "Longitudine": "10.3071753", "Latitudine": "44.8025499"}, {"Comune": "Parma", "Provincia": "PARMA", "Regione": "Emilia-Romagna", "Nome": "", "Anno inserimento": "2013", "OpenStreetMapID": "2242514882", "Longitudine": "10.3529564", "Latitudine": "44.7944116999999"}, {"Comune": "Tizzano Val Parma", "Provincia": "PARMA", "Regione": "Emilia-Romagna", "Nome": "Croce Rossa (Pronto Soccorso)", "Anno inserimento": "2015", "OpenStreetMapID": "3384733654", "Longitudine": "10.2007578", "Latitudine": "44.5183579999999"}, {"Comune": "Castel San Giovanni", "Provincia": "PIACENZA", "Regione": "Emilia-Romagna", "Nome": "Ospedale civile", "Anno inserimento": "2012", "OpenStreetMapID": "924449750", "Longitudine": "9.4404728", "Latitudine": "45.0558049999999"}, {"Comune": "Piacenza", "Provincia": "PIACENZA", "Regione": "Emilia-Romagna", "Nome": "Defibrillatore (DAE)", "Anno inserimento": "2014", "OpenStreetMapID": "3069871601", "Longitudine": "9.6820073", "Latitudine": "45.0392366999999"}, {"Comune": "Piacenza", "Provincia": "PIACENZA", "Regione": "Emilia-Romagna", "Nome": "", "Anno inserimento": "2011", "OpenStreetMapID": "1199871906", "Longitudine": "9.683082", "Latitudine": "45.0550582999999"}, {"Comune": "Pianello Val Tidone", "Provincia": "PIACENZA", "Regione": "Emilia-Romagna", "Nome": "Pia Casa Castagnetti", "Anno inserimento": "2011", "OpenStreetMapID": "1319945702", "Longitudine": "9.40304109999999", "Latitudine": "44.9459847999999"}, {"Comune": "Rottofreno", "Provincia": "PIACENZA", "Regione": "Emilia-Romagna", "Nome": "Casa della Salute", "Anno inserimento": "2013", "OpenStreetMapID": "2315622764", "Longitudine": "9.6035514", "Latitudine": "45.0557511"}, {"Comune": "Bagnara di Romagna", "Provincia": "RAVENNA", "Regione": "Emilia-Romagna", "Nome": "Poliambulatorio", "Anno inserimento": "2011", "OpenStreetMapID": "1166552706", "Longitudine": "11.8298134", "Latitudine": "44.3891447999999"}, {"Comune": "Faenza", "Provincia": "RAVENNA", "Regione": "Emilia-Romagna", "Nome": "Pronto Soccorso 118", "Anno inserimento": "2014", "OpenStreetMapID": "546597683", "Longitudine": "11.8741958", "Latitudine": "44.288232"}, {"Comune": "Fusignano", "Provincia": "RAVENNA", "Regione": "Emilia-Romagna", "Nome": "Presidio Ospedaliero", "Anno inserimento": "2012", "OpenStreetMapID": "1716107790", "Longitudine": "11.9565868", "Latitudine": "44.4682269999999"}, {"Comune": "Lugo", "Provincia": "RAVENNA", "Regione": "Emilia-Romagna", "Nome": "Ospedale Umberto I", "Anno inserimento": "2008", "OpenStreetMapID": "299846736", "Longitudine": "11.9211047", "Latitudine": "44.4165788999999"}, {"Comune": "Massa Lombarda", "Provincia": "RAVENNA", "Regione": "Emilia-Romagna", "Nome": "", "Anno inserimento": "2011", "OpenStreetMapID": "1529572493", "Longitudine": "11.8299831999999", "Latitudine": "44.4437596"}, {"Comune": "Ravenna", "Provincia": "RAVENNA", "Regione": "Emilia-Romagna", "Nome": "Casa di Cura Domus Nova", "Anno inserimento": "2009", "OpenStreetMapID": "568095443", "Longitudine": "12.1838618", "Latitudine": "44.4191658"}, {"Comune": "Ravenna", "Provincia": "RAVENNA", "Regione": "Emilia-Romagna", "Nome": "Casa di cura San Francesco", "Anno inserimento": "2012", "OpenStreetMapID": "528899706", "Longitudine": "12.2045274", "Latitudine": "44.4245768999999"}, {"Comune": "Ravenna", "Provincia": "RAVENNA", "Regione": "Emilia-Romagna", "Nome": "Ospedale Santa Maria delle Croci", "Anno inserimento": "2008", "OpenStreetMapID": "266550908", "Longitudine": "12.1904032", "Latitudine": "44.4106341999999"}, {"Comune": "Castelnovo Ne' Monti", "Provincia": "REGGIO EMILIA", "Regione": "Emilia-Romagna", "Nome": "Ospedale S. Anna", "Anno inserimento": "2012", "OpenStreetMapID": "1944314039", "Longitudine": "10.4084992", "Latitudine": "44.4343463"}, {"Comune": "Montecchio Emilia", "Provincia": "REGGIO EMILIA", "Regione": "Emilia-Romagna", "Nome": "Ospedale Ercole Franchini", "Anno inserimento": "2014", "OpenStreetMapID": "317847269", "Longitudine": "10.4498482", "Latitudine": "44.7064552"}, {"Comune": "Sant'Ilario d'Enza", "Provincia": "REGGIO EMILIA", "Regione": "Emilia-Romagna", "Nome": "USL Sant'Ilario d'Enza - Distretto Montecchio Emilia", "Anno inserimento": "2013", "OpenStreetMapID": "2244650201", "Longitudine": "10.4562589999999", "Latitudine": "44.7614226999999"}, {"Comune": "Scandiano", "Provincia": "REGGIO EMILIA", "Regione": "Emilia-Romagna", "Nome": "", "Anno inserimento": "2015", "OpenStreetMapID": "3519600792", "Longitudine": "10.6917807", "Latitudine": "44.5984071999999"}, {"Comune": "Maiolo", "Provincia": "RIMINI", "Regione": "Emilia-Romagna", "Nome": "", "Anno inserimento": "2015", "OpenStreetMapID": "3755965132", "Longitudine": "12.2946431", "Latitudine": "43.8569001999999"}, {"Comune": "Rimini", "Provincia": "RIMINI", "Regione": "Emilia-Romagna", "Nome": "Ospedale dei villeggianti", "Anno inserimento": "2012", "OpenStreetMapID": "1934414893", "Longitudine": "12.5913869999999", "Latitudine": "44.0592601999999"}, {"Comune": "Monfalcone", "Provincia": "GORIZIA", "Regione": "Friuli-Venezia Giulia", "Nome": "Pronto Soccoso 118", "Anno inserimento": "2015", "OpenStreetMapID": "2929114188", "Longitudine": "13.5198304", "Latitudine": "45.8154703"}, {"Comune": "Roveredo in Piano", "Provincia": "PORDENONE", "Regione": "Friuli-Venezia Giulia", "Nome": "RSA", "Anno inserimento": "2012", "OpenStreetMapID": "1835568061", "Longitudine": "12.6153815999999", "Latitudine": "46.0053029999999"}, {"Comune": "Trieste", "Provincia": "TRIESTE", "Regione": "Friuli-Venezia Giulia", "Nome": "Casa di cura Salus", "Anno inserimento": "2015", "OpenStreetMapID": "1482133308", "Longitudine": "13.7630526", "Latitudine": "45.6450723"}, {"Comune": "Trieste", "Provincia": "TRIESTE", "Regione": "Friuli-Venezia Giulia", "Nome": "Pronto Soccorso 118", "Anno inserimento": "2014", "OpenStreetMapID": "3217837479", "Longitudine": "13.7832197", "Latitudine": "45.6503015999999"}, {"Comune": "Trieste", "Provincia": "TRIESTE", "Regione": "Friuli-Venezia Giulia", "Nome": "Pronto Soccorso Cattinara", "Anno inserimento": "2014", "OpenStreetMapID": "3217873909", "Longitudine": "13.8260481", "Latitudine": "45.6334942"}, {"Comune": "Cividale del Friuli", "Provincia": "UDINE", "Regione": "Friuli-Venezia Giulia", "Nome": "Croce Rossa Italiana", "Anno inserimento": "2014", "OpenStreetMapID": "2288834785", "Longitudine": "13.4343509999999", "Latitudine": "46.0880066"}, {"Comune": "Cividale del Friuli", "Provincia": "UDINE", "Regione": "Friuli-Venezia Giulia", "Nome": "Hospital", "Anno inserimento": "2014", "OpenStreetMapID": "3218834559", "Longitudine": "13.4381678", "Latitudine": "46.0915954"}, {"Comune": "Flaibano", "Provincia": "UDINE", "Regione": "Friuli-Venezia Giulia", "Nome": "Ambulatorio", "Anno inserimento": "2014", "OpenStreetMapID": "2975045843", "Longitudine": "12.9844709", "Latitudine": "46.0570193"}, {"Comune": "Palmanova", "Provincia": "UDINE", "Regione": "Friuli-Venezia Giulia", "Nome": "Ospedale Civile di Palmanova", "Anno inserimento": "2014", "OpenStreetMapID": "621603401", "Longitudine": "13.3368888", "Latitudine": "45.9083741999999"}, {"Comune": "RIVIGNANO TEOR", "Provincia": "UDINE", "Regione": "Friuli-Venezia Giulia", "Nome": "", "Anno inserimento": "2011", "OpenStreetMapID": "1489951980", "Longitudine": "13.0416995999999", "Latitudine": "45.8731437"}, {"Comune": "Tolmezzo", "Provincia": "UDINE", "Regione": "Friuli-Venezia Giulia", "Nome": "Sant\u2019Antonio Abate", "Anno inserimento": "2012", "OpenStreetMapID": "1918387355", "Longitudine": "13.0060085", "Latitudine": "46.4057669999999"}, {"Comune": "Udine", "Provincia": "UDINE", "Regione": "Friuli-Venezia Giulia", "Nome": "Dipartimento di Salute Mentale A.S.S. 4", "Anno inserimento": "2011", "OpenStreetMapID": "1462112178", "Longitudine": "13.2224860999999", "Latitudine": "46.0350255999999"}, {"Comune": "Udine", "Provincia": "UDINE", "Regione": "Friuli-Venezia Giulia", "Nome": "Istituto di Medicina Fisica e Riabilitazione Geriatrica", "Anno inserimento": "2012", "OpenStreetMapID": "1821567397", "Longitudine": "13.2364482", "Latitudine": "46.0503161"}, {"Comune": "Aprilia", "Provincia": "LATINA", "Regione": "Lazio", "Nome": "", "Anno inserimento": "2014", "OpenStreetMapID": "3225215833", "Longitudine": "12.6480248", "Latitudine": "41.5875208"}, {"Comune": "Gaeta", "Provincia": "LATINA", "Regione": "Lazio", "Nome": "Sala Mortuaria", "Anno inserimento": "2015", "OpenStreetMapID": "3400475533", "Longitudine": "13.5671298", "Latitudine": "41.2217872"}, {"Comune": "Ponza", "Provincia": "LATINA", "Regione": "Lazio", "Nome": "", "Anno inserimento": "2012", "OpenStreetMapID": "1798000412", "Longitudine": "12.9565573", "Latitudine": "40.9095105"}, {"Comune": "Sezze", "Provincia": "LATINA", "Regione": "Lazio", "Nome": "", "Anno inserimento": "2011", "OpenStreetMapID": "1468299924", "Longitudine": "13.0625091999999", "Latitudine": "41.5001086999999"}, {"Comune": "Scandriglia", "Provincia": "RIETI", "Regione": "Lazio", "Nome": "Farmacia", "Anno inserimento": "2016", "OpenStreetMapID": "3955223564", "Longitudine": "12.8437781999999", "Latitudine": "42.1641094"}, {"Comune": "Albano Laziale", "Provincia": "ROMA", "Regione": "Lazio", "Nome": "Ospedale Regina Apostolorum", "Anno inserimento": "2012", "OpenStreetMapID": "1602697582", "Longitudine": "12.6639206", "Latitudine": "41.7309316999999"}, {"Comune": "Ariccia", "Provincia": "ROMA", "Regione": "Lazio", "Nome": "Luigi Spolverini", "Anno inserimento": "2012", "OpenStreetMapID": "902522337", "Longitudine": "12.6756106", "Latitudine": "41.7234825999999"}, {"Comune": "Ariccia", "Provincia": "ROMA", "Regione": "Lazio", "Nome": "", "Anno inserimento": "2012", "OpenStreetMapID": "1602744969", "Longitudine": "12.6640601", "Latitudine": "41.7248103"}, {"Comune": "Bracciano", "Provincia": "ROMA", "Regione": "Lazio", "Nome": "Ospedale Pubblico Padre Pio", "Anno inserimento": "2010", "OpenStreetMapID": "911787320", "Longitudine": "12.1727931999999", "Latitudine": "42.0962476999999"}, {"Comune": "Fiumicino", "Provincia": "ROMA", "Regione": "Lazio", "Nome": "Ospedale Pediatrico Bambin Gesu", "Anno inserimento": "2010", "OpenStreetMapID": "251871299", "Longitudine": "12.1415678", "Latitudine": "41.9199926"}, {"Comune": "Genzano di Roma", "Provincia": "ROMA", "Regione": "Lazio", "Nome": "Istituto S.Giovanni Di Dio Fate Bene Fratelli", "Anno inserimento": "2010", "OpenStreetMapID": "262336538", "Longitudine": "12.67488", "Latitudine": "41.7004242"}, {"Comune": "Genzano di Roma", "Provincia": "ROMA", "Regione": "Lazio", "Nome": "Ospedale de Santis", "Anno inserimento": "2010", "OpenStreetMapID": "825972097", "Longitudine": "12.6786347999999", "Latitudine": "41.7041904"}, {"Comune": "Ladispoli", "Provincia": "ROMA", "Regione": "Lazio", "Nome": "POSTAZIONE 118", "Anno inserimento": "2014", "OpenStreetMapID": "2936704791", "Longitudine": "12.1269583", "Latitudine": "41.9333373999999"}, {"Comune": "Monterotondo", "Provincia": "ROMA", "Regione": "Lazio", "Nome": "Gonfalone", "Anno inserimento": "2012", "OpenStreetMapID": "1983448219", "Longitudine": "12.6213514999999", "Latitudine": "42.0504578999999"}, {"Comune": "Morlupo", "Provincia": "ROMA", "Regione": "Lazio", "Nome": "Croce Rossa Morlupo", "Anno inserimento": "2014", "OpenStreetMapID": "2819141133", "Longitudine": "12.4936349", "Latitudine": "42.1450363"}, {"Comune": "Nemi", "Provincia": "ROMA", "Regione": "Lazio", "Nome": "Villa delle Querce", "Anno inserimento": "2010", "OpenStreetMapID": "1035723052", "Longitudine": "12.7170153", "Latitudine": "41.7123557999999"}, {"Comune": "Palombara Sabina", "Provincia": "ROMA", "Regione": "Lazio", "Nome": "San Salvatore", "Anno inserimento": "2012", "OpenStreetMapID": "799400828", "Longitudine": "12.7624967999999", "Latitudine": "42.0688096"}, {"Comune": "Rocca di Papa", "Provincia": "ROMA", "Regione": "Lazio", "Nome": "ASL", "Anno inserimento": "2015", "OpenStreetMapID": "2440169911", "Longitudine": "12.7081994", "Latitudine": "41.7595966"}, {"Comune": "Roma", "Provincia": "ROMA", "Regione": "Lazio", "Nome": "ARES 118", "Anno inserimento": "2012", "OpenStreetMapID": "1196645632", "Longitudine": "12.4597917", "Latitudine": "41.8702420999999"}, {"Comune": "Roma", "Provincia": "ROMA", "Regione": "Lazio", "Nome": "Aurelia Hospital", "Anno inserimento": "2012", "OpenStreetMapID": "434692525", "Longitudine": "12.3983943", "Latitudine": "41.8870756999999"}, {"Comune": "Roma", "Provincia": "ROMA", "Regione": "Lazio", "Nome": "Distretto di salute mentale A.S.L. Roma Due", "Anno inserimento": "2014", "OpenStreetMapID": "2824672193", "Longitudine": "12.2707897999999", "Latitudine": "41.7325012"}, {"Comune": "Roma", "Provincia": "ROMA", "Regione": "Lazio", "Nome": "I.F.O. Istituto Regina Elena e Istituto San Gallo", "Anno inserimento": "2010", "OpenStreetMapID": "804465318", "Longitudine": "12.4486445", "Latitudine": "41.8023637"}, {"Comune": "Roma", "Provincia": "ROMA", "Regione": "Lazio", "Nome": "Ospedale Israelitico", "Anno inserimento": "2009", "OpenStreetMapID": "365299638", "Longitudine": "12.4284693", "Latitudine": "41.8357069999999"}, {"Comune": "Roma", "Provincia": "ROMA", "Regione": "Lazio", "Nome": "Ospedale San Giovanni Battista", "Anno inserimento": "2013", "OpenStreetMapID": "262114028", "Longitudine": "12.418452", "Latitudine": "41.8282625"}, {"Comune": "Roma", "Provincia": "ROMA", "Regione": "Lazio", "Nome": "Policlinico Tor Vergata", "Anno inserimento": "2011", "OpenStreetMapID": "924590499", "Longitudine": "12.6309392", "Latitudine": "41.8575792999999"}, {"Comune": "Roma", "Provincia": "ROMA", "Regione": "Lazio", "Nome": "Pronto Soccorso 118", "Anno inserimento": "2013", "OpenStreetMapID": "248528643", "Longitudine": "12.5403769", "Latitudine": "41.9216283"}, {"Comune": "Roma", "Provincia": "ROMA", "Regione": "Lazio", "Nome": "Pronto Soccorso 118", "Anno inserimento": "2013", "OpenStreetMapID": "2318096925", "Longitudine": "12.5102905", "Latitudine": "41.9070472"}, {"Comune": "Roma", "Provincia": "ROMA", "Regione": "Lazio", "Nome": "Villa Sandra", "Anno inserimento": "2013", "OpenStreetMapID": "428571538", "Longitudine": "12.4208257999999", "Latitudine": "41.8503399"}, {"Comune": "Roma", "Provincia": "ROMA", "Regione": "Lazio", "Nome": "Villa Stuart", "Anno inserimento": "2014", "OpenStreetMapID": "3034658080", "Longitudine": "12.4504208999999", "Latitudine": "41.9277165"}, {"Comune": "Roma", "Provincia": "ROMA", "Regione": "Lazio", "Nome": "Villa Tiberia", "Anno inserimento": "2012", "OpenStreetMapID": "1925831648", "Longitudine": "12.5578965", "Latitudine": "41.9461639"}, {"Comune": "Tivoli", "Provincia": "ROMA", "Regione": "Lazio", "Nome": "San Giovanni Evangelista", "Anno inserimento": "2013", "OpenStreetMapID": "748775623", "Longitudine": "12.8026335", "Latitudine": "41.9601200999999"}, {"Comune": "Valmontone", "Provincia": "ROMA", "Regione": "Lazio", "Nome": "Croce Rossa", "Anno inserimento": "2011", "OpenStreetMapID": "839208231", "Longitudine": "12.9209517", "Latitudine": "41.775094"}, {"Comune": "Acquapendente", "Provincia": "VITERBO", "Regione": "Lazio", "Nome": "Ospedale Santa Maria della Scala", "Anno inserimento": "2015", "OpenStreetMapID": "1732954478", "Longitudine": "11.8653758", "Latitudine": "42.7458734"}, {"Comune": "Capranica", "Provincia": "VITERBO", "Regione": "Lazio", "Nome": "Villa Paola", "Anno inserimento": "2008", "OpenStreetMapID": "246965787", "Longitudine": "12.1728644", "Latitudine": "42.2590381999999"}, {"Comune": "Civita Castellana", "Provincia": "VITERBO", "Regione": "Lazio", "Nome": "Ospedale Andosilla di Civita Castellana", "Anno inserimento": "2014", "OpenStreetMapID": "490454523", "Longitudine": "12.4205738", "Latitudine": "42.2902745999999"}, {"Comune": "Orte", "Provincia": "VITERBO", "Regione": "Lazio", "Nome": "Centro Salute Orte", "Anno inserimento": "2015", "OpenStreetMapID": "1818883486", "Longitudine": "12.3843922", "Latitudine": "42.4604088"}, {"Comune": "Tarquinia", "Provincia": "VITERBO", "Regione": "Lazio", "Nome": "Ospedale", "Anno inserimento": "2013", "OpenStreetMapID": "2128115697", "Longitudine": "11.759316", "Latitudine": "42.2500322"}, {"Comune": "Tarquinia", "Provincia": "VITERBO", "Regione": "Lazio", "Nome": "", "Anno inserimento": "2015", "OpenStreetMapID": "3680538082", "Longitudine": "11.7094812", "Latitudine": "42.2114143"}, {"Comune": "Viterbo", "Provincia": "VITERBO", "Regione": "Lazio", "Nome": "Bel Colle", "Anno inserimento": "2013", "OpenStreetMapID": "245879588", "Longitudine": "12.1234628", "Latitudine": "42.3942774"}, {"Comune": "Campo Ligure", "Provincia": "GENOVA", "Regione": "Liguria", "Nome": "Opera Pia San Michele Arcangelo", "Anno inserimento": "2010", "OpenStreetMapID": "603938253", "Longitudine": "8.6994053", "Latitudine": "44.5358518999999"}, {"Comune": "Cicagna", "Provincia": "GENOVA", "Regione": "Liguria", "Nome": "Ospedaletto", "Anno inserimento": "2014", "OpenStreetMapID": "3092330573", "Longitudine": "9.2431181", "Latitudine": "44.4055316999999"}, {"Comune": "Cogoleto", "Provincia": "GENOVA", "Regione": "Liguria", "Nome": "", "Anno inserimento": "2015", "OpenStreetMapID": "2766446026", "Longitudine": "8.6454868", "Latitudine": "44.389983"}, {"Comune": "Genova", "Provincia": "GENOVA", "Regione": "Liguria", "Nome": "Croce Rossa Italiana - Comitato Locale di Genova", "Anno inserimento": "2014", "OpenStreetMapID": "2775158723", "Longitudine": "8.982215", "Latitudine": "44.4012259"}, {"Comune": "Genova", "Provincia": "GENOVA", "Regione": "Liguria", "Nome": "Croce Rossa Italiana - Comitato Locale di Genova", "Anno inserimento": "2015", "OpenStreetMapID": "3149433919", "Longitudine": "8.9604908", "Latitudine": "44.4045232"}, {"Comune": "Genova", "Provincia": "GENOVA", "Regione": "Liguria", "Nome": "Hospice Gigi Ghirotti", "Anno inserimento": "2011", "OpenStreetMapID": "1427976790", "Longitudine": "8.9671273", "Latitudine": "44.4034882999999"}, {"Comune": "Genova", "Provincia": "GENOVA", "Regione": "Liguria", "Nome": "Ospedale Pastorino", "Anno inserimento": "2015", "OpenStreetMapID": "3784314302", "Longitudine": "8.90193099999999", "Latitudine": "44.463971"}, {"Comune": "Genova", "Provincia": "GENOVA", "Regione": "Liguria", "Nome": "Pronto Soccorso 118", "Anno inserimento": "2012", "OpenStreetMapID": "1655214176", "Longitudine": "8.9751824", "Latitudine": "44.408726"}, {"Comune": "Genova", "Provincia": "GENOVA", "Regione": "Liguria", "Nome": "Pronto Soccorso 118", "Anno inserimento": "2013", "OpenStreetMapID": "2286538221", "Longitudine": "8.7452734", "Latitudine": "44.4300105"}, {"Comune": "Genova", "Provincia": "GENOVA", "Regione": "Liguria", "Nome": "Pronto Soccorso Ostetrico", "Anno inserimento": "2014", "OpenStreetMapID": "1149150256", "Longitudine": "8.9698024", "Latitudine": "44.4080707"}, {"Comune": "Genova", "Provincia": "GENOVA", "Regione": "Liguria", "Nome": "Pubblica Assistenza Nerviese", "Anno inserimento": "2014", "OpenStreetMapID": "1743778682", "Longitudine": "9.0325477", "Latitudine": "44.384506"}, {"Comune": "Imperia", "Provincia": "IMPERIA", "Regione": "Liguria", "Nome": "", "Anno inserimento": "2011", "OpenStreetMapID": "441523881", "Longitudine": "8.0302185", "Latitudine": "43.8915847999999"}, {"Comune": "Levanto", "Provincia": "LA SPEZIA", "Regione": "Liguria", "Nome": "", "Anno inserimento": "2015", "OpenStreetMapID": "3281294381", "Longitudine": "9.6195244", "Latitudine": "44.1766018"}, {"Comune": "Sarzana", "Provincia": "LA SPEZIA", "Regione": "Liguria", "Nome": "", "Anno inserimento": "2012", "OpenStreetMapID": "1469458250", "Longitudine": "9.9495694", "Latitudine": "44.1214039999999"}, {"Comune": "Finale Ligure", "Provincia": "SAVONA", "Regione": "Liguria", "Nome": "P.A. Croce Verde Finalborgo", "Anno inserimento": "2014", "OpenStreetMapID": "2519502535", "Longitudine": "8.32926179999999", "Latitudine": "44.1762482"}, {"Comune": "Savona", "Provincia": "SAVONA", "Regione": "Liguria", "Nome": "Emergency Room", "Anno inserimento": "2010", "OpenStreetMapID": "861803093", "Longitudine": "8.491168", "Latitudine": "44.3193673999999"}, {"Comune": "Savona", "Provincia": "SAVONA", "Regione": "Liguria", "Nome": "RSA del Santuario", "Anno inserimento": "2015", "OpenStreetMapID": "368280172", "Longitudine": "8.43459539999999", "Latitudine": "44.3448295999999"}, {"Comune": "Zuccarello", "Provincia": "SAVONA", "Regione": "Liguria", "Nome": "Soccorso Cinofilo Liguria - Campo Addestramento", "Anno inserimento": "2014", "OpenStreetMapID": "2774569646", "Longitudine": "8.1217112", "Latitudine": "44.108102"}, {"Comune": "Zuccarello", "Provincia": "SAVONA", "Regione": "Liguria", "Nome": "Soccorso Cinofilo Liguria - Sede Operativa", "Anno inserimento": "2014", "OpenStreetMapID": "2774570245", "Longitudine": "8.1152096", "Latitudine": "44.1112545"}, {"Comune": "Lovere", "Provincia": "BERGAMO", "Regione": "Lombardia", "Nome": "", "Anno inserimento": "2012", "OpenStreetMapID": "868346215", "Longitudine": "10.0753892", "Latitudine": "45.8191971999999"}, {"Comune": "Ponte San Pietro", "Provincia": "BERGAMO", "Regione": "Lombardia", "Nome": "Policlinico San Pietro", "Anno inserimento": "2010", "OpenStreetMapID": "365883717", "Longitudine": "9.5755584", "Latitudine": "45.6982567"}, {"Comune": "Romano di Lombardia", "Provincia": "BERGAMO", "Regione": "Lombardia", "Nome": "Ospedale di Romano", "Anno inserimento": "2013", "OpenStreetMapID": "1937258648", "Longitudine": "9.7511046", "Latitudine": "45.5197848999999"}, {"Comune": "Seriate", "Provincia": "BERGAMO", "Regione": "Lombardia", "Nome": "", "Anno inserimento": "2013", "OpenStreetMapID": "2129666762", "Longitudine": "9.71816379999999", "Latitudine": "45.6831281999999"}, {"Comune": "Spirano", "Provincia": "BERGAMO", "Regione": "Lombardia", "Nome": "Ospizio", "Anno inserimento": "2012", "OpenStreetMapID": "1687457780", "Longitudine": "9.6667086", "Latitudine": "45.5815308999999"}, {"Comune": "Spirano", "Provincia": "BERGAMO", "Regione": "Lombardia", "Nome": "", "Anno inserimento": "2012", "OpenStreetMapID": "1687284647", "Longitudine": "9.6707534", "Latitudine": "45.5822743"}, {"Comune": "Carpenedolo", "Provincia": "BRESCIA", "Regione": "Lombardia", "Nome": "Casa Di Riposo S.Maria Castello", "Anno inserimento": "2012", "OpenStreetMapID": "1819494689", "Longitudine": "10.4265373", "Latitudine": "45.3658726"}, {"Comune": "Gargnano", "Provincia": "BRESCIA", "Regione": "Lombardia", "Nome": "Guardia Medica", "Anno inserimento": "2015", "OpenStreetMapID": "1996725069", "Longitudine": "10.6616525", "Latitudine": "45.6881891"}, {"Comune": "Gavardo", "Provincia": "BRESCIA", "Regione": "Lombardia", "Nome": "Pronto Soccorso 118", "Anno inserimento": "2015", "OpenStreetMapID": "3351874372", "Longitudine": "10.4408221", "Latitudine": "45.5883386"}, {"Comune": "Lograto", "Provincia": "BRESCIA", "Regione": "Lombardia", "Nome": "Ambulatorio medico", "Anno inserimento": "2013", "OpenStreetMapID": "2145385340", "Longitudine": "10.0540448999999", "Latitudine": "45.4822859"}, {"Comune": "Manerbio", "Provincia": "BRESCIA", "Regione": "Lombardia", "Nome": "Ospedale di Manerbio", "Anno inserimento": "2016", "OpenStreetMapID": "3939620367", "Longitudine": "10.1461288", "Latitudine": "45.3567305999999"}, {"Comune": "Montichiari", "Provincia": "BRESCIA", "Regione": "Lombardia", "Nome": "Spedali Civili Brescia Montichiari", "Anno inserimento": "2014", "OpenStreetMapID": "2148204881", "Longitudine": "10.4087873", "Latitudine": "45.4104243999999"}, {"Comune": "Rodengo Saiano", "Provincia": "BRESCIA", "Regione": "Lombardia", "Nome": "Pronto Soccorso Avis", "Anno inserimento": "2013", "OpenStreetMapID": "2242220553", "Longitudine": "10.1102536", "Latitudine": "45.5925099"}, {"Comune": "Roe' Volciano", "Provincia": "BRESCIA", "Regione": "Lombardia", "Nome": "Fondazione Casa di Riposo di Ro\u00e0 Volciano - ONL", "Anno inserimento": "2014", "OpenStreetMapID": "2833986032", "Longitudine": "10.503593", "Latitudine": "45.6221212"}, {"Comune": "BELLAGIO", "Provincia": "COMO", "Regione": "Lombardia", "Nome": "", "Anno inserimento": "2015", "OpenStreetMapID": "427724309", "Longitudine": "9.2610845", "Latitudine": "45.9882544999999"}, {"Comune": "Cagno", "Provincia": "COMO", "Regione": "Lombardia", "Nome": "Ambulatorio", "Anno inserimento": "2013", "OpenStreetMapID": "2445650941", "Longitudine": "8.9184692", "Latitudine": "45.8116904999999"}, {"Comune": "Como", "Provincia": "COMO", "Regione": "Lombardia", "Nome": "Villa Aprica", "Anno inserimento": "2010", "OpenStreetMapID": "429876745", "Longitudine": "9.06105999999999", "Latitudine": "45.8234998"}, {"Comune": "Gravedona e Uniti", "Provincia": "COMO", "Regione": "Lombardia", "Nome": "", "Anno inserimento": "2010", "OpenStreetMapID": "308452518", "Longitudine": "9.29968309999999", "Latitudine": "46.1423885999999"}, {"Comune": "Menaggio", "Provincia": "COMO", "Regione": "Lombardia", "Nome": "ASL Menaggio", "Anno inserimento": "2012", "OpenStreetMapID": "1740868546", "Longitudine": "9.23885119999999", "Latitudine": "46.0251391999999"}, {"Comune": "Agnadello", "Provincia": "CREMONA", "Regione": "Lombardia", "Nome": "", "Anno inserimento": "2014", "OpenStreetMapID": "3107550975", "Longitudine": "9.55848879999999", "Latitudine": "45.4449990999999"}, {"Comune": "Castelverde", "Provincia": "CREMONA", "Regione": "Lombardia", "Nome": "Opera Pia Redentore", "Anno inserimento": "2010", "OpenStreetMapID": "676278746", "Longitudine": "9.9957553", "Latitudine": "45.1877943"}, {"Comune": "Crema", "Provincia": "CREMONA", "Regione": "Lombardia", "Nome": "Ospedale Maggiore di Crema", "Anno inserimento": "2009", "OpenStreetMapID": "283583053", "Longitudine": "9.6804623", "Latitudine": "45.3540344"}, {"Comune": "Cremona", "Provincia": "CREMONA", "Regione": "Lombardia", "Nome": "Casa di cura Figlie di San Camillo", "Anno inserimento": "2015", "OpenStreetMapID": "2090726100", "Longitudine": "10.0127963", "Latitudine": "45.1450602999999"}, {"Comune": "Cremona", "Provincia": "CREMONA", "Regione": "Lombardia", "Nome": "Casa di cura San Camillo", "Anno inserimento": "2013", "OpenStreetMapID": "2090726090", "Longitudine": "10.0393849999999", "Latitudine": "45.1375778"}, {"Comune": "Rivolta d'Adda", "Provincia": "CREMONA", "Regione": "Lombardia", "Nome": "Ospedale di Rivolta d'Adda", "Anno inserimento": "2013", "OpenStreetMapID": "2593163397", "Longitudine": "9.5149233", "Latitudine": "45.4692407"}, {"Comune": "Soresina", "Provincia": "CREMONA", "Regione": "Lombardia", "Nome": "Guardia Medica", "Anno inserimento": "2015", "OpenStreetMapID": "3428462806", "Longitudine": "9.8559959", "Latitudine": "45.2893083"}, {"Comune": "Sospiro", "Provincia": "CREMONA", "Regione": "Lombardia", "Nome": "Clinica Sospiro", "Anno inserimento": "2010", "OpenStreetMapID": "628037181", "Longitudine": "10.1574466999999", "Latitudine": "45.1062061"}, {"Comune": "Introbio", "Provincia": "LECCO", "Regione": "Lombardia", "Nome": "A.S.L. Presidio di Introbio", "Anno inserimento": "2014", "OpenStreetMapID": "2621644202", "Longitudine": "9.4461681", "Latitudine": "45.9774907999999"}, {"Comune": "San Benedetto Po", "Provincia": "MANTOVA", "Regione": "Lombardia", "Nome": "Poli ambulatorio", "Anno inserimento": "2014", "OpenStreetMapID": "2845125874", "Longitudine": "10.9281653999999", "Latitudine": "45.0404422"}, {"Comune": "Viadana", "Provincia": "MANTOVA", "Regione": "Lombardia", "Nome": "ospitale civile", "Anno inserimento": "2015", "OpenStreetMapID": "3523075426", "Longitudine": "10.522617", "Latitudine": "44.9261345"}, {"Comune": "Abbiategrasso", "Provincia": "MILANO", "Regione": "Lombardia", "Nome": "Centro Diagnostico Fleming", "Anno inserimento": "2014", "OpenStreetMapID": "2606776652", "Longitudine": "8.9185105", "Latitudine": "45.399855"}, {"Comune": "Bresso", "Provincia": "MILANO", "Regione": "Lombardia", "Nome": "Centro Polifunzionale di Emergenza Croce Rossa Italiana", "Anno inserimento": "2013", "OpenStreetMapID": "2282025039", "Longitudine": "9.2055001", "Latitudine": "45.5334332999999"}, {"Comune": "Cassano d'Adda", "Provincia": "MILANO", "Regione": "Lombardia", "Nome": "", "Anno inserimento": "2012", "OpenStreetMapID": "892211002", "Longitudine": "9.5162469", "Latitudine": "45.5227481"}, {"Comune": "Cernusco sul Naviglio", "Provincia": "MILANO", "Regione": "Lombardia", "Nome": "Casa di Cura Anziani", "Anno inserimento": "2013", "OpenStreetMapID": "1641747487", "Longitudine": "9.3337591", "Latitudine": "45.5273425"}, {"Comune": "Garbagnate Milanese", "Provincia": "MILANO", "Regione": "Lombardia", "Nome": "Casa Riposo S. Pertini", "Anno inserimento": "2009", "OpenStreetMapID": "539588673", "Longitudine": "9.0791263", "Latitudine": "45.5848586999999"}, {"Comune": "Garbagnate Milanese", "Provincia": "MILANO", "Regione": "Lombardia", "Nome": "Ospedale S. Corona Garbagnate - Salvini", "Anno inserimento": "2010", "OpenStreetMapID": "539389756", "Longitudine": "9.096663", "Latitudine": "45.5816535"}, {"Comune": "Milano", "Provincia": "MILANO", "Regione": "Lombardia", "Nome": "Clinica Columbus", "Anno inserimento": "2014", "OpenStreetMapID": "281587946", "Longitudine": "9.1557776", "Latitudine": "45.472802"}, {"Comune": "Milano", "Provincia": "MILANO", "Regione": "Lombardia", "Nome": "Istituto Scientifico Ospedale San Luca", "Anno inserimento": "2014", "OpenStreetMapID": "2791491258", "Longitudine": "9.1450352", "Latitudine": "45.4718982999999"}, {"Comune": "Milano", "Provincia": "MILANO", "Regione": "Lombardia", "Nome": "Ospedal Buzzi", "Anno inserimento": "2009", "OpenStreetMapID": "541052343", "Longitudine": "9.1671338", "Latitudine": "45.4858497"}, {"Comune": "Milano", "Provincia": "MILANO", "Regione": "Lombardia", "Nome": "Ospedale Gaetano Pini", "Anno inserimento": "2015", "OpenStreetMapID": "260044832", "Longitudine": "9.1936546", "Latitudine": "45.4547689999999"}, {"Comune": "Milano", "Provincia": "MILANO", "Regione": "Lombardia", "Nome": "Ospedale Luigi Sacco", "Anno inserimento": "2008", "OpenStreetMapID": "275707305", "Longitudine": "9.1231233", "Latitudine": "45.5191512999999"}, {"Comune": "Milano", "Provincia": "MILANO", "Regione": "Lombardia", "Nome": "Ospedale San Giuseppe", "Anno inserimento": "2014", "OpenStreetMapID": "272877453", "Longitudine": "9.1715163", "Latitudine": "45.4630950999999"}, {"Comune": "Milano", "Provincia": "MILANO", "Regione": "Lombardia", "Nome": "Poliambulatorio Cesare Pozzo", "Anno inserimento": "2014", "OpenStreetMapID": "278208919", "Longitudine": "9.1673344", "Latitudine": "45.4998068"}, {"Comune": "Milano", "Provincia": "MILANO", "Regione": "Lombardia", "Nome": "Poliambulatorio Sassi", "Anno inserimento": "2014", "OpenStreetMapID": "2678697562", "Longitudine": "9.1720033", "Latitudine": "45.4668624999999"}, {"Comune": "Milano", "Provincia": "MILANO", "Regione": "Lombardia", "Nome": "S. Ambrogio", "Anno inserimento": "2015", "OpenStreetMapID": "2106322765", "Longitudine": "9.1533085", "Latitudine": "45.4843771999999"}, {"Comune": "Milano", "Provincia": "MILANO", "Regione": "Lombardia", "Nome": "S. Ambrogio-Prontosoccorso", "Anno inserimento": "2015", "OpenStreetMapID": "2106323310", "Longitudine": "9.1533694", "Latitudine": "45.4846087"}, {"Comune": "Milano", "Provincia": "MILANO", "Regione": "Lombardia", "Nome": "", "Anno inserimento": "2015", "OpenStreetMapID": "3373327796", "Longitudine": "9.0908557", "Latitudine": "45.4628809"}, {"Comune": "Milano", "Provincia": "MILANO", "Regione": "Lombardia", "Nome": "", "Anno inserimento": "2015", "OpenStreetMapID": "3459236688", "Longitudine": "9.1023876", "Latitudine": "45.5176284"}, {"Comune": "Milano", "Provincia": "MILANO", "Regione": "Lombardia", "Nome": "", "Anno inserimento": "2015", "OpenStreetMapID": "3459240713", "Longitudine": "9.1094515", "Latitudine": "45.5189789"}, {"Comune": "Milano", "Provincia": "MILANO", "Regione": "Lombardia", "Nome": "", "Anno inserimento": "2015", "OpenStreetMapID": "3459240740", "Longitudine": "9.0960731", "Latitudine": "45.5208012"}, {"Comune": "Milano", "Provincia": "MILANO", "Regione": "Lombardia", "Nome": "", "Anno inserimento": "2015", "OpenStreetMapID": "3735457853", "Longitudine": "9.1775637", "Latitudine": "45.4650281999999"}, {"Comune": "Carate Brianza", "Provincia": "MONZA E DELLA BRIANZA", "Regione": "Lombardia", "Nome": "Bianalisi s.r.l. Analisi Mediche", "Anno inserimento": "2015", "OpenStreetMapID": "3655972703", "Longitudine": "9.2351706", "Latitudine": "45.6749512"}, {"Comune": "Carate Brianza", "Provincia": "MONZA E DELLA BRIANZA", "Regione": "Lombardia", "Nome": "", "Anno inserimento": "2010", "OpenStreetMapID": "622572794", "Longitudine": "9.2395677", "Latitudine": "45.6762949"}, {"Comune": "Limbiate", "Provincia": "MONZA E DELLA BRIANZA", "Regione": "Lombardia", "Nome": "Villa Bianca - Multimedica", "Anno inserimento": "2011", "OpenStreetMapID": "1301169753", "Longitudine": "9.1166253", "Latitudine": "45.6049308999999"}, {"Comune": "Lissone", "Provincia": "MONZA E DELLA BRIANZA", "Regione": "Lombardia", "Nome": "Croce Verde Lissonese", "Anno inserimento": "2013", "OpenStreetMapID": "2429516858", "Longitudine": "9.2385227", "Latitudine": "45.6179409"}, {"Comune": "Seregno", "Provincia": "MONZA E DELLA BRIANZA", "Regione": "Lombardia", "Nome": "Centro Psico - Sociale Seregno", "Anno inserimento": "2010", "OpenStreetMapID": "905797149", "Longitudine": "9.2128389", "Latitudine": "45.6456687"}, {"Comune": "Varedo", "Provincia": "MONZA E DELLA BRIANZA", "Regione": "Lombardia", "Nome": "Varedo Soccorso", "Anno inserimento": "2014", "OpenStreetMapID": "2912402416", "Longitudine": "9.1489818", "Latitudine": "45.5966292999999"}, {"Comune": "Casei Gerola", "Provincia": "PAVIA", "Regione": "Lombardia", "Nome": "Casa di riposo San Fortunato", "Anno inserimento": "2015", "OpenStreetMapID": "3826599061", "Longitudine": "8.9263908", "Latitudine": "45.0056537"}, {"Comune": "Casei Gerola", "Provincia": "PAVIA", "Regione": "Lombardia", "Nome": "Studio Medico", "Anno inserimento": "2015", "OpenStreetMapID": "3826601913", "Longitudine": "8.92640379999999", "Latitudine": "45.0064526999999"}, {"Comune": "Casorate Primo", "Provincia": "PAVIA", "Regione": "Lombardia", "Nome": "", "Anno inserimento": "2012", "OpenStreetMapID": "1912780637", "Longitudine": "9.0145293", "Latitudine": "45.3087536999999"}, {"Comune": "Godiasco", "Provincia": "PAVIA", "Regione": "Lombardia", "Nome": "Fondazione Don Carlo Gnocchi - Centro Santa Mari", "Anno inserimento": "2013", "OpenStreetMapID": "2463395761", "Longitudine": "9.0271528", "Latitudine": "44.9103483999999"}, {"Comune": "Godiasco", "Provincia": "PAVIA", "Regione": "Lombardia", "Nome": "Villa Esperia - Casa di Cura e Riabilitazione", "Anno inserimento": "2013", "OpenStreetMapID": "2462838795", "Longitudine": "9.0347357", "Latitudine": "44.9061884999999"}, {"Comune": "Montescano", "Provincia": "PAVIA", "Regione": "Lombardia", "Nome": "Istituto per la Riabilitazione Maugeri", "Anno inserimento": "2009", "OpenStreetMapID": "600862762", "Longitudine": "9.2852387", "Latitudine": "45.0320789"}, {"Comune": "Pavia", "Provincia": "PAVIA", "Regione": "Lombardia", "Nome": "C.N.A.O. - Centro Nazionale di Adroterapia Oncol", "Anno inserimento": "2014", "OpenStreetMapID": "2852940512", "Longitudine": "9.1449718", "Latitudine": "45.2010537"}, {"Comune": "Pavia", "Provincia": "PAVIA", "Regione": "Lombardia", "Nome": "Clinica Citt\u00e0 di Pavia", "Anno inserimento": "2010", "OpenStreetMapID": "645900549", "Longitudine": "9.1674404", "Latitudine": "45.1923356"}, {"Comune": "Pavia", "Provincia": "PAVIA", "Regione": "Lombardia", "Nome": "DEA", "Anno inserimento": "2014", "OpenStreetMapID": "2579533175", "Longitudine": "9.14741169999999", "Latitudine": "45.2007173"}, {"Comune": "Pavia", "Provincia": "PAVIA", "Regione": "Lombardia", "Nome": "Fondazione Salvatore Maugeri", "Anno inserimento": "2012", "OpenStreetMapID": "1628293885", "Longitudine": "9.141984", "Latitudine": "45.204487"}, {"Comune": "Pavia", "Provincia": "PAVIA", "Regione": "Lombardia", "Nome": "Istituto di Medicina del Lavoro", "Anno inserimento": "2010", "OpenStreetMapID": "681739610", "Longitudine": "9.1503742", "Latitudine": "45.1893171999999"}, {"Comune": "Pavia", "Provincia": "PAVIA", "Regione": "Lombardia", "Nome": "Istituto Santa Margherita", "Anno inserimento": "2014", "OpenStreetMapID": "3068442200", "Longitudine": "9.1722316", "Latitudine": "45.1953627999999"}, {"Comune": "Stradella", "Provincia": "PAVIA", "Regione": "Lombardia", "Nome": "Croce Rossa Italiana - Stradella", "Anno inserimento": "2014", "OpenStreetMapID": "2513622263", "Longitudine": "9.3246026", "Latitudine": "45.0664045999999"}, {"Comune": "Varzi", "Provincia": "PAVIA", "Regione": "Lombardia", "Nome": "Pronto Soccorso - OC Varzi", "Anno inserimento": "2014", "OpenStreetMapID": "2958452870", "Longitudine": "9.191632", "Latitudine": "44.8254669"}, {"Comune": "Voghera", "Provincia": "PAVIA", "Regione": "Lombardia", "Nome": "Ospedale Civile di Voghera - Accesso Pronto Socc", "Anno inserimento": "2013", "OpenStreetMapID": "1978580077", "Longitudine": "9.0169345", "Latitudine": "44.9954106"}, {"Comune": "Voghera", "Provincia": "PAVIA", "Regione": "Lombardia", "Nome": "Ospedale civile di voghera entrata posteriore", "Anno inserimento": "2013", "OpenStreetMapID": "2200633476", "Longitudine": "9.0145176", "Latitudine": "44.9947822999999"}, {"Comune": "Voghera", "Provincia": "PAVIA", "Regione": "Lombardia", "Nome": "", "Anno inserimento": "2015", "OpenStreetMapID": "2707160891", "Longitudine": "8.9987308", "Latitudine": "44.9899531"}, {"Comune": "Tirano", "Provincia": "SONDRIO", "Regione": "Lombardia", "Nome": "Struttura sanitaria di Tirano - Poliambulatori", "Anno inserimento": "2011", "OpenStreetMapID": "1456629565", "Longitudine": "10.1691012999999", "Latitudine": "46.2183835"}, {"Comune": "Bisuschio", "Provincia": "VARESE", "Regione": "Lombardia", "Nome": "Centro Diurno di Bisuschio", "Anno inserimento": "2015", "OpenStreetMapID": "3872646923", "Longitudine": "8.8805137", "Latitudine": "45.8828614"}, {"Comune": "Cittiglio", "Provincia": "VARESE", "Regione": "Lombardia", "Nome": "Ospedale di Cittiglio", "Anno inserimento": "2015", "OpenStreetMapID": "872506122", "Longitudine": "8.6681273", "Latitudine": "45.8940902"}, {"Comune": "Cunardo", "Provincia": "VARESE", "Regione": "Lombardia", "Nome": "Le Terrazze", "Anno inserimento": "2009", "OpenStreetMapID": "602211592", "Longitudine": "8.8064315", "Latitudine": "45.9346322"}, {"Comune": "Luino", "Provincia": "VARESE", "Regione": "Lombardia", "Nome": "Ospedale Luini Confalonieri", "Anno inserimento": "2016", "OpenStreetMapID": "1869897812", "Longitudine": "8.7457992", "Latitudine": "45.9961536"}, {"Comune": "Saronno", "Provincia": "VARESE", "Regione": "Lombardia", "Nome": "LABORATORIO ANALISI MEDICHE GESTIONE LABORATORI", "Anno inserimento": "2014", "OpenStreetMapID": "3216127174", "Longitudine": "9.0324228", "Latitudine": "45.6365880999999"}, {"Comune": "Saronno", "Provincia": "VARESE", "Regione": "Lombardia", "Nome": "Meditel clinica ambulatorio", "Anno inserimento": "2012", "OpenStreetMapID": "1907133077", "Longitudine": "9.03034869999999", "Latitudine": "45.6307852999999"}, {"Comune": "Saronno", "Provincia": "VARESE", "Regione": "Lombardia", "Nome": "Pronto Soccorso 118", "Anno inserimento": "2014", "OpenStreetMapID": "3215382613", "Longitudine": "9.0392051", "Latitudine": "45.6303691"}, {"Comune": "Ancona", "Provincia": "ANCONA", "Regione": "Marche", "Nome": "Ospedale Cardiologico \u2018Giovanni Maria Lancisi\u2019", "Anno inserimento": "2011", "OpenStreetMapID": "-1", "Longitudine": "13.4543783", "Latitudine": "43.6031352999999"}, {"Comune": "Ancona", "Provincia": "ANCONA", "Regione": "Marche", "Nome": "Ospedale Pediatrico \u2018G. Salesi\u2019", "Anno inserimento": "2012", "OpenStreetMapID": "-1", "Longitudine": "13.5324329999999", "Latitudine": "43.6167631"}, {"Comune": "Arcevia", "Provincia": "ANCONA", "Regione": "Marche", "Nome": "", "Anno inserimento": "2014", "OpenStreetMapID": "477370529", "Longitudine": "12.9414537", "Latitudine": "43.4997838"}, {"Comune": "Castelfidardo", "Provincia": "ANCONA", "Regione": "Marche", "Nome": "", "Anno inserimento": "2012", "OpenStreetMapID": "1869640800", "Longitudine": "13.5561048", "Latitudine": "43.4671201"}, {"Comune": "Chiaravalle", "Provincia": "ANCONA", "Regione": "Marche", "Nome": "Ospedale M. Montessori", "Anno inserimento": "2010", "OpenStreetMapID": "848204101", "Longitudine": "13.3156798999999", "Latitudine": "43.5979322999999"}, {"Comune": "Cupramontana", "Provincia": "ANCONA", "Regione": "Marche", "Nome": "Ambulatorio", "Anno inserimento": "2014", "OpenStreetMapID": "3063336686", "Longitudine": "13.1174991", "Latitudine": "43.4467888"}, {"Comune": "Osimo", "Provincia": "ANCONA", "Regione": "Marche", "Nome": "", "Anno inserimento": "2011", "OpenStreetMapID": "1326679520", "Longitudine": "13.4874057999999", "Latitudine": "43.4852721"}, {"Comune": "Ostra Vetere", "Provincia": "ANCONA", "Regione": "Marche", "Nome": "", "Anno inserimento": "2012", "OpenStreetMapID": "1604032038", "Longitudine": "13.0566341", "Latitudine": "43.6028436"}, {"Comune": "Sirolo", "Provincia": "ANCONA", "Regione": "Marche", "Nome": "Croce Azzurra", "Anno inserimento": "2015", "OpenStreetMapID": "3358233591", "Longitudine": "13.6124278", "Latitudine": "43.5227602"}, {"Comune": "Ascoli Piceno", "Provincia": "ASCOLI PICENO", "Regione": "Marche", "Nome": "Casa di Cura San Giuseppe", "Anno inserimento": "2010", "OpenStreetMapID": "595790313", "Longitudine": "13.6227292", "Latitudine": "42.8514697999999"}, {"Comune": "Ascoli Piceno", "Provincia": "ASCOLI PICENO", "Regione": "Marche", "Nome": "Casa di Cura Villa San Marco", "Anno inserimento": "2010", "OpenStreetMapID": "644135437", "Longitudine": "13.5881776", "Latitudine": "42.8492514"}, {"Comune": "Offida", "Provincia": "ASCOLI PICENO", "Regione": "Marche", "Nome": "Poliambulatorio di Offida (ex Ospedale Civile)", "Anno inserimento": "2010", "OpenStreetMapID": "-1", "Longitudine": "13.6927564", "Latitudine": "42.9362922999999"}, {"Comune": "Sant'Elpidio a Mare", "Provincia": "FERMO", "Regione": "Marche", "Nome": "", "Anno inserimento": "2011", "OpenStreetMapID": "736622623", "Longitudine": "13.6887545999999", "Latitudine": "43.2342658"}, {"Comune": "Caldarola", "Provincia": "MACERATA", "Regione": "Marche", "Nome": "", "Anno inserimento": "2012", "OpenStreetMapID": "1613443811", "Longitudine": "13.2228651999999", "Latitudine": "43.1416218"}, {"Comune": "Corridonia", "Provincia": "MACERATA", "Regione": "Marche", "Nome": "Ospedale", "Anno inserimento": "2012", "OpenStreetMapID": "519018205", "Longitudine": "13.5079439", "Latitudine": "43.2476801999999"}, {"Comune": "Fiastra", "Provincia": "MACERATA", "Regione": "Marche", "Nome": "", "Anno inserimento": "2012", "OpenStreetMapID": "1863087827", "Longitudine": "13.1556685", "Latitudine": "43.0362778"}, {"Comune": "Matelica", "Provincia": "MACERATA", "Regione": "Marche", "Nome": "", "Anno inserimento": "2012", "OpenStreetMapID": "1839754075", "Longitudine": "13.0084794", "Latitudine": "43.2456328999999"}, {"Comune": "Potenza Picena", "Provincia": "MACERATA", "Regione": "Marche", "Nome": "Santo Stefano", "Anno inserimento": "2011", "OpenStreetMapID": "364424585", "Longitudine": "13.6932443", "Latitudine": "43.3694843999999"}, {"Comune": "Recanati", "Provincia": "MACERATA", "Regione": "Marche", "Nome": "Casa di riposo IRCER", "Anno inserimento": "2011", "OpenStreetMapID": "1413042519", "Longitudine": "13.5520569", "Latitudine": "43.4021716"}, {"Comune": "Cagli", "Provincia": "PESARO E URBINO", "Regione": "Marche", "Nome": "Ospedale Civile \u2018A. Celli\u2019", "Anno inserimento": "2015", "OpenStreetMapID": "-1", "Longitudine": "12.650819", "Latitudine": "43.5476529999999"}, {"Comune": "Fossombrone", "Provincia": "PESARO E URBINO", "Regione": "Marche", "Nome": "Ospedale Civile Fossombrone", "Anno inserimento": "2015", "OpenStreetMapID": "1435016188", "Longitudine": "12.8039235", "Latitudine": "43.6859261999999"}, {"Comune": "Frontone", "Provincia": "PESARO E URBINO", "Regione": "Marche", "Nome": "Infermeria FISPS", "Anno inserimento": "2013", "OpenStreetMapID": "2268215239", "Longitudine": "12.6926853", "Latitudine": "43.4797123999999"}, {"Comune": "Mondolfo", "Provincia": "PESARO E URBINO", "Regione": "Marche", "Nome": "Ospedale Bartolini", "Anno inserimento": "2014", "OpenStreetMapID": "2872559641", "Longitudine": "13.0950519", "Latitudine": "43.7517490999999"}, {"Comune": "Pergola", "Provincia": "PESARO E URBINO", "Regione": "Marche", "Nome": "Ospedale SS Donnino e Carlo", "Anno inserimento": "2013", "OpenStreetMapID": "2146013324", "Longitudine": "12.8302659", "Latitudine": "43.5686034"}, {"Comune": "Pesaro", "Provincia": "PESARO E URBINO", "Regione": "Marche", "Nome": "ASUR", "Anno inserimento": "2012", "OpenStreetMapID": "1858573726", "Longitudine": "12.8968298", "Latitudine": "43.89397"}, {"Comune": "Urbania", "Provincia": "PESARO E URBINO", "Regione": "Marche", "Nome": "DISTRETTO SANITARIO N 2 DI URBANIA", "Anno inserimento": "2014", "OpenStreetMapID": "3229583110", "Longitudine": "12.5189021", "Latitudine": "43.6705787"}, {"Comune": "Campobasso", "Provincia": "CAMPOBASSO", "Regione": "Molise", "Nome": "Ospedale Antonio Cardarelli", "Anno inserimento": "2014", "OpenStreetMapID": "2774114656", "Longitudine": "14.622096", "Latitudine": "41.5479965"}, {"Comune": "Campobasso", "Provincia": "CAMPOBASSO", "Regione": "Molise", "Nome": "Pronto Soccorso 118", "Anno inserimento": "2015", "OpenStreetMapID": "2672544500", "Longitudine": "14.6230189", "Latitudine": "41.5483807999999"}, {"Comune": "Acqui Terme", "Provincia": "ALESSANDRIA", "Regione": "Piemonte", "Nome": "Casa di cura Villa Igea", "Anno inserimento": "2014", "OpenStreetMapID": "3160224386", "Longitudine": "8.468272", "Latitudine": "44.6811659"}, {"Comune": "Alessandria", "Provincia": "ALESSANDRIA", "Regione": "Piemonte", "Nome": "Hospice Il Gelso", "Anno inserimento": "2015", "OpenStreetMapID": "3456136050", "Longitudine": "8.622921", "Latitudine": "44.9151657999999"}, {"Comune": "Alessandria", "Provincia": "ALESSANDRIA", "Regione": "Piemonte", "Nome": "Pronto Soccorso 118", "Anno inserimento": "2016", "OpenStreetMapID": "3184542612", "Longitudine": "8.6218314", "Latitudine": "44.9171105"}, {"Comune": "Alessandria", "Provincia": "ALESSANDRIA", "Regione": "Piemonte", "Nome": "SALUS", "Anno inserimento": "2015", "OpenStreetMapID": "3461258398", "Longitudine": "8.6121506", "Latitudine": "44.9124631999999"}, {"Comune": "Casalnoceto", "Provincia": "ALESSANDRIA", "Regione": "Piemonte", "Nome": "centro paolo VI", "Anno inserimento": "2010", "OpenStreetMapID": "916881543", "Longitudine": "8.9866706", "Latitudine": "44.9118616"}, {"Comune": "Novi Ligure", "Provincia": "ALESSANDRIA", "Regione": "Piemonte", "Nome": "Ospedale San Giacomo", "Anno inserimento": "2014", "OpenStreetMapID": "931802977", "Longitudine": "8.7928766", "Latitudine": "44.7587897"}, {"Comune": "Nizza Monferrato", "Provincia": "ASTI", "Regione": "Piemonte", "Nome": "Ospedale Santo Spirito", "Anno inserimento": "2013", "OpenStreetMapID": "1177271563", "Longitudine": "8.3550006", "Latitudine": "44.772987"}, {"Comune": "Ponderano", "Provincia": "BIELLA", "Regione": "Piemonte", "Nome": "Ospedale degli Infermi", "Anno inserimento": "2015", "OpenStreetMapID": "3185119556", "Longitudine": "8.0627657", "Latitudine": "45.5433767999999"}, {"Comune": "Borgo San Dalmazzo", "Provincia": "CUNEO", "Regione": "Piemonte", "Nome": "ASL Cuneo n.1", "Anno inserimento": "2011", "OpenStreetMapID": "1445651410", "Longitudine": "7.4979258", "Latitudine": "44.3330721999999"}, {"Comune": "Boves", "Provincia": "CUNEO", "Regione": "Piemonte", "Nome": "Azienda Sanitaria Locale cn1 Centralino", "Anno inserimento": "2011", "OpenStreetMapID": "1448031743", "Longitudine": "7.5483669", "Latitudine": "44.3296001"}, {"Comune": "Bra", "Provincia": "CUNEO", "Regione": "Piemonte", "Nome": "Casa di cura privata Citt\u00e0 di BRA", "Anno inserimento": "2013", "OpenStreetMapID": "1870099273", "Longitudine": "7.8586648", "Latitudine": "44.6968374"}, {"Comune": "Busca", "Provincia": "CUNEO", "Regione": "Piemonte", "Nome": "Azienda Sanitaria Locale cn1", "Anno inserimento": "2015", "OpenStreetMapID": "1446961749", "Longitudine": "7.4727258", "Latitudine": "44.5145968"}, {"Comune": "Caraglio", "Provincia": "CUNEO", "Regione": "Piemonte", "Nome": "Ospedale di Caraglio ASL CN1", "Anno inserimento": "2015", "OpenStreetMapID": "1803194882", "Longitudine": "7.4242149", "Latitudine": "44.4148532999999"}, {"Comune": "Chiusa di Pesio", "Provincia": "CUNEO", "Regione": "Piemonte", "Nome": "Azienda Sanitaria Locale cn1", "Anno inserimento": "2012", "OpenStreetMapID": "1448063765", "Longitudine": "7.6794273", "Latitudine": "44.3212575"}, {"Comune": "Chiusa di Pesio", "Provincia": "CUNEO", "Regione": "Piemonte", "Nome": "Residenza per anziani \u2018La Meridiana\u2019", "Anno inserimento": "2011", "OpenStreetMapID": "-1", "Longitudine": "7.6721978", "Latitudine": "44.3262740999999"}, {"Comune": "Dogliani", "Provincia": "CUNEO", "Regione": "Piemonte", "Nome": "", "Anno inserimento": "2013", "OpenStreetMapID": "2276789081", "Longitudine": "7.943788", "Latitudine": "44.5307856"}, {"Comune": "Entracque", "Provincia": "CUNEO", "Regione": "Piemonte", "Nome": "Centro Socio Assistenziale San Michele", "Anno inserimento": "2011", "OpenStreetMapID": "1446273813", "Longitudine": "7.3972604", "Latitudine": "44.23857"}, {"Comune": "Fossano", "Provincia": "CUNEO", "Regione": "Piemonte", "Nome": "Ospedale Maggiore", "Anno inserimento": "2010", "OpenStreetMapID": "1010828999", "Longitudine": "7.723091", "Latitudine": "44.5477880999999"}, {"Comune": "Peveragno", "Provincia": "CUNEO", "Regione": "Piemonte", "Nome": "Azienda Sanitaria Locale cn1 Prenotazioni", "Anno inserimento": "2012", "OpenStreetMapID": "1447981808", "Longitudine": "7.6225698", "Latitudine": "44.3306715"}, {"Comune": "Peveragno", "Provincia": "CUNEO", "Regione": "Piemonte", "Nome": "Croce Rossa Italiana Delegazione di Peveragno", "Anno inserimento": "2012", "OpenStreetMapID": "1447984261", "Longitudine": "7.6225068", "Latitudine": "44.3308615999999"}, {"Comune": "Robilante", "Provincia": "CUNEO", "Regione": "Piemonte", "Nome": "Istituto Climatico", "Anno inserimento": "2012", "OpenStreetMapID": "1512114795", "Longitudine": "7.5207276", "Latitudine": "44.2879456"}, {"Comune": "Rodello", "Provincia": "CUNEO", "Regione": "Piemonte", "Nome": "Casa di cura \u2018La Residenza\u2019", "Anno inserimento": "2015", "OpenStreetMapID": "-1", "Longitudine": "8.05940599999999", "Latitudine": "44.6312270999999"}, {"Comune": "Villanova Mondovi'", "Provincia": "CUNEO", "Regione": "Piemonte", "Nome": "Azienda Sanitaria locale cn1", "Anno inserimento": "2011", "OpenStreetMapID": "1447884401", "Longitudine": "7.7619399", "Latitudine": "44.3446904999999"}, {"Comune": "Ghemme", "Provincia": "NOVARA", "Regione": "Piemonte", "Nome": "Guardia Medica di Ghemme", "Anno inserimento": "2013", "OpenStreetMapID": "2425413775", "Longitudine": "8.4195055", "Latitudine": "45.5980636999999"}, {"Comune": "Ghemme", "Provincia": "NOVARA", "Regione": "Piemonte", "Nome": "Ospedale di Ghemme", "Anno inserimento": "2013", "OpenStreetMapID": "2425413776", "Longitudine": "8.4196422", "Latitudine": "45.5981326"}, {"Comune": "Nebbiuno", "Provincia": "NOVARA", "Regione": "Piemonte", "Nome": "Croce Rossa Italiana - Volontari del Vergante", "Anno inserimento": "2014", "OpenStreetMapID": "2844465977", "Longitudine": "8.5233905", "Latitudine": "45.7949059"}, {"Comune": "Novara", "Provincia": "NOVARA", "Regione": "Piemonte", "Nome": "Farmacia dell'Ospedale", "Anno inserimento": "2012", "OpenStreetMapID": "2039728477", "Longitudine": "8.6224712", "Latitudine": "45.4440688999999"}, {"Comune": "Novara", "Provincia": "NOVARA", "Regione": "Piemonte", "Nome": "Pronto Soccorso ASL Novara", "Anno inserimento": "2015", "OpenStreetMapID": "3385724639", "Longitudine": "8.6226392", "Latitudine": "45.4419759"}, {"Comune": "Borgaro Torinese", "Provincia": "TORINO", "Regione": "Piemonte", "Nome": "CRI", "Anno inserimento": "2012", "OpenStreetMapID": "1287732721", "Longitudine": "7.7037961", "Latitudine": "45.1418643"}, {"Comune": "Castellamonte", "Provincia": "TORINO", "Regione": "Piemonte", "Nome": "Ospedale Civile di Castellamonte", "Anno inserimento": "2013", "OpenStreetMapID": "506720441", "Longitudine": "7.7084619", "Latitudine": "45.3813835999999"}, {"Comune": "Chieri", "Provincia": "TORINO", "Regione": "Piemonte", "Nome": "", "Anno inserimento": "2016", "OpenStreetMapID": "618065063", "Longitudine": "7.8231999", "Latitudine": "45.0111603"}, {"Comune": "Chivasso", "Provincia": "TORINO", "Regione": "Piemonte", "Nome": "", "Anno inserimento": "2012", "OpenStreetMapID": "965879060", "Longitudine": "7.8947829", "Latitudine": "45.191878"}, {"Comune": "Collegno", "Provincia": "TORINO", "Regione": "Piemonte", "Nome": "Guardia Medica", "Anno inserimento": "2015", "OpenStreetMapID": "3521390394", "Longitudine": "7.5763491", "Latitudine": "45.0861935"}, {"Comune": "Giaveno", "Provincia": "TORINO", "Regione": "Piemonte", "Nome": "Ospedale Civile di Giaveno", "Anno inserimento": "2012", "OpenStreetMapID": "1013180642", "Longitudine": "7.3563635", "Latitudine": "45.0419307"}, {"Comune": "Orbassano", "Provincia": "TORINO", "Regione": "Piemonte", "Nome": "Ospedale San Luigi - Emergency", "Anno inserimento": "2015", "OpenStreetMapID": "3538127650", "Longitudine": "7.5589817", "Latitudine": "45.0292178999999"}, {"Comune": "Pianezza", "Provincia": "TORINO", "Regione": "Piemonte", "Nome": "IRM", "Anno inserimento": "2014", "OpenStreetMapID": "2975475598", "Longitudine": "7.5565018", "Latitudine": "45.0956290999999"}, {"Comune": "Pomaretto", "Provincia": "TORINO", "Regione": "Piemonte", "Nome": "Ospedale di Pomaretto", "Anno inserimento": "2012", "OpenStreetMapID": "1582482972", "Longitudine": "7.1825635", "Latitudine": "44.9564888"}, {"Comune": "Rivoli", "Provincia": "TORINO", "Regione": "Piemonte", "Nome": "Ospedale di Rivoli - Emergency", "Anno inserimento": "2015", "OpenStreetMapID": "3521386459", "Longitudine": "7.5214476", "Latitudine": "45.0599378"}, {"Comune": "Torino", "Provincia": "TORINO", "Regione": "Piemonte", "Nome": "Azienda Asl TO2 Circoscrizione 7", "Anno inserimento": "2015", "OpenStreetMapID": "3342035128", "Longitudine": "7.703882", "Latitudine": "45.0689313"}, {"Comune": "Torino", "Provincia": "TORINO", "Regione": "Piemonte", "Nome": "Ospedale CTO - Emergency", "Anno inserimento": "2015", "OpenStreetMapID": "3538149953", "Longitudine": "7.6739743", "Latitudine": "45.0336034999999"}, {"Comune": "Torino", "Provincia": "TORINO", "Regione": "Piemonte", "Nome": "Ospedale Koelliker", "Anno inserimento": "2013", "OpenStreetMapID": "2524447312", "Longitudine": "7.6546618", "Latitudine": "45.0410119"}, {"Comune": "Torino", "Provincia": "TORINO", "Regione": "Piemonte", "Nome": "Ospedale Maria Vittoria - Emergency", "Anno inserimento": "2015", "OpenStreetMapID": "3538127633", "Longitudine": "7.6562946", "Latitudine": "45.0825839"}, {"Comune": "Torino", "Provincia": "TORINO", "Regione": "Piemonte", "Nome": "Ospedale Martini - Emergency", "Anno inserimento": "2015", "OpenStreetMapID": "3538127618", "Longitudine": "7.6279499", "Latitudine": "45.0666155999999"}, {"Comune": "Torino", "Provincia": "TORINO", "Regione": "Piemonte", "Nome": "Ospedale Mauriziano - Emergency", "Anno inserimento": "2015", "OpenStreetMapID": "3538149967", "Longitudine": "7.6650676", "Latitudine": "45.0506382"}, {"Comune": "Torino", "Provincia": "TORINO", "Regione": "Piemonte", "Nome": "Ospedale Molinette - Emergency", "Anno inserimento": "2015", "OpenStreetMapID": "3538127651", "Longitudine": "7.6739771", "Latitudine": "45.0415203"}, {"Comune": "Torino", "Provincia": "TORINO", "Regione": "Piemonte", "Nome": "Ospedale Sant'Anna - Emergency", "Anno inserimento": "2015", "OpenStreetMapID": "3538127652", "Longitudine": "7.6733251", "Latitudine": "45.0358947"}, {"Comune": "Torino", "Provincia": "TORINO", "Regione": "Piemonte", "Nome": "Poliambulatorio ASL TO1", "Anno inserimento": "2015", "OpenStreetMapID": "3896547668", "Longitudine": "7.6492885", "Latitudine": "45.0155181"}, {"Comune": "Torino", "Provincia": "TORINO", "Regione": "Piemonte", "Nome": "Presidio Ospedaliero Major", "Anno inserimento": "2015", "OpenStreetMapID": "3352096005", "Longitudine": "7.6999591", "Latitudine": "45.0687707"}, {"Comune": "Torino", "Provincia": "TORINO", "Regione": "Piemonte", "Nome": "Presidio sanitario \u2018Vittorio Valletta\u2019", "Anno inserimento": "2015", "OpenStreetMapID": "3858667665", "Longitudine": "7.6307308", "Latitudine": "45.0157095"}, {"Comune": "Torino", "Provincia": "TORINO", "Regione": "Piemonte", "Nome": "Pronto soccorso pediatrico", "Anno inserimento": "2015", "OpenStreetMapID": "3451061182", "Longitudine": "7.6740616", "Latitudine": "45.0344377999999"}, {"Comune": "Torino", "Provincia": "TORINO", "Regione": "Piemonte", "Nome": "RSA Cardinal Ballestrero", "Anno inserimento": "2015", "OpenStreetMapID": "3858824567", "Longitudine": "7.6202533", "Latitudine": "45.0178237"}, {"Comune": "Torino", "Provincia": "TORINO", "Regione": "Piemonte", "Nome": "", "Anno inserimento": "2014", "OpenStreetMapID": "3149295783", "Longitudine": "7.6354798", "Latitudine": "45.0668493"}, {"Comune": "Venaria Reale", "Provincia": "TORINO", "Regione": "Piemonte", "Nome": "Ospedale Venaria - Emergency", "Anno inserimento": "2015", "OpenStreetMapID": "3538322174", "Longitudine": "7.6286369", "Latitudine": "45.1336585"}, {"Comune": "Vinovo", "Provincia": "TORINO", "Regione": "Piemonte", "Nome": "Croce Verde", "Anno inserimento": "2010", "OpenStreetMapID": "872054634", "Longitudine": "7.6391411", "Latitudine": "44.9529839"}, {"Comune": "Cannobio", "Provincia": "VERBANIA", "Regione": "Piemonte", "Nome": "", "Anno inserimento": "2012", "OpenStreetMapID": "1378611012", "Longitudine": "8.6925088", "Latitudine": "46.0598409999999"}, {"Comune": "Omegna", "Provincia": "VERBANIA", "Regione": "Piemonte", "Nome": "Ospedale Madonna del Popolo", "Anno inserimento": "2012", "OpenStreetMapID": "1313078620", "Longitudine": "8.41180209999999", "Latitudine": "45.8729382"}, {"Comune": "Pieve Vergonte", "Provincia": "VERBANIA", "Regione": "Piemonte", "Nome": "Distretto Sanitario ASL 14", "Anno inserimento": "2014", "OpenStreetMapID": "3196013184", "Longitudine": "8.2702021", "Latitudine": "46.0068349"}, {"Comune": "Pieve Vergonte", "Provincia": "VERBANIA", "Regione": "Piemonte", "Nome": "Veterinario", "Anno inserimento": "2015", "OpenStreetMapID": "3726707110", "Longitudine": "8.2710291", "Latitudine": "46.0035681"}, {"Comune": "Gattinara", "Provincia": "VERCELLI", "Regione": "Piemonte", "Nome": "ASL Vercelli", "Anno inserimento": "2013", "OpenStreetMapID": "2294634302", "Longitudine": "8.3729093", "Latitudine": "45.6089230999999"}, {"Comune": "Varallo", "Provincia": "VERCELLI", "Regione": "Piemonte", "Nome": "Casa Serena", "Anno inserimento": "2014", "OpenStreetMapID": "2632598165", "Longitudine": "8.26873559999999", "Latitudine": "45.8093866999999"}, {"Comune": "Vercelli", "Provincia": "VERCELLI", "Regione": "Piemonte", "Nome": "Ambulatorio Veterinario", "Anno inserimento": "2014", "OpenStreetMapID": "2943298582", "Longitudine": "8.4435872", "Latitudine": "45.3063867999999"}, {"Comune": "Vercelli", "Provincia": "VERCELLI", "Regione": "Piemonte", "Nome": "Ambulatorio Veterinario", "Anno inserimento": "2014", "OpenStreetMapID": "2968790196", "Longitudine": "8.40574649999999", "Latitudine": "45.326245"}, {"Comune": "Vercelli", "Provincia": "VERCELLI", "Regione": "Piemonte", "Nome": "Clinica Santa Rita", "Anno inserimento": "2015", "OpenStreetMapID": "2872066082", "Longitudine": "8.4223064", "Latitudine": "45.3123737"}, {"Comune": "Vercelli", "Provincia": "VERCELLI", "Regione": "Piemonte", "Nome": "Guardia Medica", "Anno inserimento": "2014", "OpenStreetMapID": "2814119513", "Longitudine": "8.41426809999999", "Latitudine": "45.3173648"}, {"Comune": "Vercelli", "Provincia": "VERCELLI", "Regione": "Piemonte", "Nome": "Piastra Polifunzionale", "Anno inserimento": "2014", "OpenStreetMapID": "2809752409", "Longitudine": "8.4162027", "Latitudine": "45.3178459"}, {"Comune": "Vercelli", "Provincia": "VERCELLI", "Regione": "Piemonte", "Nome": "Pronto Soccorso 118", "Anno inserimento": "2014", "OpenStreetMapID": "2800570544", "Longitudine": "8.41493769999999", "Latitudine": "45.3177852999999"}, {"Comune": "Vercelli", "Provincia": "VERCELLI", "Regione": "Piemonte", "Nome": "Studio di fisioterapia clinica Adriano Reis", "Anno inserimento": "2014", "OpenStreetMapID": "3035467608", "Longitudine": "8.4146477", "Latitudine": "45.3206489"}, {"Comune": "Bari", "Provincia": "BARI", "Regione": "Puglia", "Nome": "Ambulatorio medico - Croce Rossa Italiana", "Anno inserimento": "2013", "OpenStreetMapID": "1433747566", "Longitudine": "16.8410082999999", "Latitudine": "41.1362237"}, {"Comune": "Bari", "Provincia": "BARI", "Regione": "Puglia", "Nome": "Ambulatorio Primo Soccorso - First Aid - Croce Rossa", "Anno inserimento": "2013", "OpenStreetMapID": "1412486593", "Longitudine": "16.7642512", "Latitudine": "41.1344701"}, {"Comune": "Bari", "Provincia": "BARI", "Regione": "Puglia", "Nome": "ex C.T.O", "Anno inserimento": "2013", "OpenStreetMapID": "616872053", "Longitudine": "16.8431138999999", "Latitudine": "41.1362618"}, {"Comune": "Bari", "Provincia": "BARI", "Regione": "Puglia", "Nome": "First Aid - university", "Anno inserimento": "2013", "OpenStreetMapID": "2124054724", "Longitudine": "16.8687365", "Latitudine": "41.1200706999999"}, {"Comune": "Bari", "Provincia": "BARI", "Regione": "Puglia", "Nome": "Mater Dei", "Anno inserimento": "2011", "OpenStreetMapID": "1291624453", "Longitudine": "16.8855399", "Latitudine": "41.0979427999999"}, {"Comune": "Bari", "Provincia": "BARI", "Regione": "Puglia", "Nome": "Prontosoccorso policlinico", "Anno inserimento": "2015", "OpenStreetMapID": "3874499030", "Longitudine": "16.8573930999999", "Latitudine": "41.1130830999999"}, {"Comune": "Gioia del Colle", "Provincia": "BARI", "Regione": "Puglia", "Nome": "Centro Nazionale Riabilitativo per Hanseniani", "Anno inserimento": "2013", "OpenStreetMapID": "2137514980", "Longitudine": "16.8217375", "Latitudine": "40.7423361"}, {"Comune": "Gravina in Puglia", "Provincia": "BARI", "Regione": "Puglia", "Nome": "Guardia Medica", "Anno inserimento": "2015", "OpenStreetMapID": "3354040309", "Longitudine": "16.4209533", "Latitudine": "40.8169898"}, {"Comune": "Gravina in Puglia", "Provincia": "BARI", "Regione": "Puglia", "Nome": "Pronto Soccorso 118", "Anno inserimento": "2015", "OpenStreetMapID": "3342451831", "Longitudine": "16.4207353", "Latitudine": "40.8170746999999"}, {"Comune": "Polignano a Mare", "Provincia": "BARI", "Regione": "Puglia", "Nome": "Punto di primo intervento", "Anno inserimento": "2012", "OpenStreetMapID": "567243847", "Longitudine": "17.2253763999999", "Latitudine": "40.9932633"}, {"Comune": "Ruvo di Puglia", "Provincia": "BARI", "Regione": "Puglia", "Nome": "Diagnostica s.r.l.", "Anno inserimento": "2015", "OpenStreetMapID": "3536974724", "Longitudine": "16.4847086", "Latitudine": "41.1183678"}, {"Comune": "Ruvo di Puglia", "Provincia": "BARI", "Regione": "Puglia", "Nome": "", "Anno inserimento": "2009", "OpenStreetMapID": "597396898", "Longitudine": "16.4872419999999", "Latitudine": "41.1201512"}, {"Comune": "Sammichele di Bari", "Provincia": "BARI", "Regione": "Puglia", "Nome": "Guardia Medica", "Anno inserimento": "2013", "OpenStreetMapID": "2393726733", "Longitudine": "16.9536635999999", "Latitudine": "40.8912005999999"}, {"Comune": "Terlizzi", "Provincia": "BARI", "Regione": "Puglia", "Nome": "Pronto Soccorso 118", "Anno inserimento": "2008", "OpenStreetMapID": "323970296", "Longitudine": "16.5344082", "Latitudine": "41.1311840999999"}, {"Comune": "Andria", "Provincia": "BARLETTA ANDRIA TRANI", "Regione": "Puglia", "Nome": "Guardia Medica", "Anno inserimento": "2013", "OpenStreetMapID": "418759967", "Longitudine": "16.3046502", "Latitudine": "41.2361859999999"}, {"Comune": "Minervino Murge", "Provincia": "BARLETTA ANDRIA TRANI", "Regione": "Puglia", "Nome": "Ospedale Civile", "Anno inserimento": "2010", "OpenStreetMapID": "667117500", "Longitudine": "16.0763594", "Latitudine": "41.0922843"}, {"Comune": "Spinazzola", "Provincia": "BARLETTA ANDRIA TRANI", "Regione": "Puglia", "Nome": "", "Anno inserimento": "2010", "OpenStreetMapID": "675635464", "Longitudine": "16.0841554", "Latitudine": "40.973668"}, {"Comune": "Trani", "Provincia": "BARLETTA ANDRIA TRANI", "Regione": "Puglia", "Nome": "San Nicola Pellegrino", "Anno inserimento": "2009", "OpenStreetMapID": "387221877", "Longitudine": "16.4296805", "Latitudine": "41.2674853999999"}, {"Comune": "Latiano", "Provincia": "BRINDISI", "Regione": "Puglia", "Nome": "guardia medica", "Anno inserimento": "2013", "OpenStreetMapID": "2097713322", "Longitudine": "17.7098434", "Latitudine": "40.5502857"}, {"Comune": "San Donaci", "Provincia": "BRINDISI", "Regione": "Puglia", "Nome": "", "Anno inserimento": "2012", "OpenStreetMapID": "1811247846", "Longitudine": "17.9223843999999", "Latitudine": "40.4484835"}, {"Comune": "Castelnuovo della Daunia", "Provincia": "FOGGIA", "Regione": "Puglia", "Nome": "Clinica De Luca", "Anno inserimento": "2013", "OpenStreetMapID": "2288509818", "Longitudine": "15.1126501", "Latitudine": "41.5781265999999"}, {"Comune": "Cerignola", "Provincia": "FOGGIA", "Regione": "Puglia", "Nome": "Tatarella", "Anno inserimento": "2012", "OpenStreetMapID": "293551107", "Longitudine": "15.9188158", "Latitudine": "41.2721098"}, {"Comune": "Foggia", "Provincia": "FOGGIA", "Regione": "Puglia", "Nome": "Clinica Colonnello D'Avanzo", "Anno inserimento": "2009", "OpenStreetMapID": "351142744", "Longitudine": "15.5454797", "Latitudine": "41.4535564999999"}, {"Comune": "Foggia", "Provincia": "FOGGIA", "Regione": "Puglia", "Nome": "", "Anno inserimento": "2010", "OpenStreetMapID": "617182522", "Longitudine": "15.5238564", "Latitudine": "41.4578484999999"}, {"Comune": "Foggia", "Provincia": "FOGGIA", "Regione": "Puglia", "Nome": "", "Anno inserimento": "2012", "OpenStreetMapID": "351138881", "Longitudine": "15.5243927999999", "Latitudine": "41.4557337999999"}, {"Comune": "Lesina", "Provincia": "FOGGIA", "Regione": "Puglia", "Nome": "Pronto Soccorso Estivo", "Anno inserimento": "2011", "OpenStreetMapID": "1241563267", "Longitudine": "15.3374535", "Latitudine": "41.9079112"}, {"Comune": "Lucera", "Provincia": "FOGGIA", "Regione": "Puglia", "Nome": "", "Anno inserimento": "2009", "OpenStreetMapID": "429375430", "Longitudine": "15.3309558", "Latitudine": "41.5132047"}, {"Comune": "Monte Sant'Angelo", "Provincia": "FOGGIA", "Regione": "Puglia", "Nome": "", "Anno inserimento": "2010", "OpenStreetMapID": "806505348", "Longitudine": "15.9699458", "Latitudine": "41.7055842999999"}, {"Comune": "San Marco in Lamis", "Provincia": "FOGGIA", "Regione": "Puglia", "Nome": "Ospedale di San Marco in Lamis", "Anno inserimento": "2013", "OpenStreetMapID": "2293620765", "Longitudine": "15.6410544", "Latitudine": "41.712051"}, {"Comune": "San Nicandro Garganico", "Provincia": "FOGGIA", "Regione": "Puglia", "Nome": "a.s.l. foggia", "Anno inserimento": "2013", "OpenStreetMapID": "2156948851", "Longitudine": "15.5765802", "Latitudine": "41.8316439"}, {"Comune": "San Severo", "Provincia": "FOGGIA", "Regione": "Puglia", "Nome": "Ospedale Teresa Masselli Mascia", "Anno inserimento": "2011", "OpenStreetMapID": "1240376403", "Longitudine": "15.3866207999999", "Latitudine": "41.6905298"}, {"Comune": "San Severo", "Provincia": "FOGGIA", "Regione": "Puglia", "Nome": "Ospedale Teresa Masselli Mascia", "Anno inserimento": "2011", "OpenStreetMapID": "1240376442", "Longitudine": "15.3831875999999", "Latitudine": "41.6896484999999"}, {"Comune": "Vieste", "Provincia": "FOGGIA", "Regione": "Puglia", "Nome": "", "Anno inserimento": "2009", "OpenStreetMapID": "534609447", "Longitudine": "16.1620513", "Latitudine": "41.8767422999999"}, {"Comune": "Galatina", "Provincia": "LECCE", "Regione": "Puglia", "Nome": "Clinica S. Francesco", "Anno inserimento": "2013", "OpenStreetMapID": "2154757521", "Longitudine": "18.1666193", "Latitudine": "40.1730550999999"}, {"Comune": "Lecce", "Provincia": "LECCE", "Regione": "Puglia", "Nome": "Clinica Petrucciani", "Anno inserimento": "2014", "OpenStreetMapID": "2347705644", "Longitudine": "18.1967463999999", "Latitudine": "40.3556213999999"}, {"Comune": "Nardo'", "Provincia": "LECCE", "Regione": "Puglia", "Nome": "Ospedale Civile Giuseppe Sambiasi", "Anno inserimento": "2011", "OpenStreetMapID": "966256936", "Longitudine": "18.0345763", "Latitudine": "40.1721508999999"}, {"Comune": "Salice Salentino", "Provincia": "LECCE", "Regione": "Puglia", "Nome": "Poliambulatorio San Francesco", "Anno inserimento": "2013", "OpenStreetMapID": "2504509546", "Longitudine": "17.9661371999999", "Latitudine": "40.379654"}, {"Comune": "Trepuzzi", "Provincia": "LECCE", "Regione": "Puglia", "Nome": "Pronto Soccorso 118", "Anno inserimento": "2015", "OpenStreetMapID": "3918739670", "Longitudine": "18.1220150999999", "Latitudine": "40.4968918"}, {"Comune": "Castellaneta", "Provincia": "TARANTO", "Regione": "Puglia", "Nome": "Ospedale castellaneta", "Anno inserimento": "2014", "OpenStreetMapID": "2808373547", "Longitudine": "16.9344983999999", "Latitudine": "40.6343675"}, {"Comune": "Grottaglie", "Provincia": "TARANTO", "Regione": "Puglia", "Nome": "ASL", "Anno inserimento": "2013", "OpenStreetMapID": "2454234307", "Longitudine": "17.4369438", "Latitudine": "40.546253"}, {"Comune": "Grottaglie", "Provincia": "TARANTO", "Regione": "Puglia", "Nome": "Pronto Soccorso 118", "Anno inserimento": "2013", "OpenStreetMapID": "2374710402", "Longitudine": "17.4261942", "Latitudine": "40.5389849999999"}, {"Comune": "Martina Franca", "Provincia": "TARANTO", "Regione": "Puglia", "Nome": "Civile di Martina Franca", "Anno inserimento": "2010", "OpenStreetMapID": "590052359", "Longitudine": "17.3436248999999", "Latitudine": "40.7058443"}, {"Comune": "Statte", "Provincia": "TARANTO", "Regione": "Puglia", "Nome": "Ospedale G. Moscati", "Anno inserimento": "2011", "OpenStreetMapID": "1375792171", "Longitudine": "17.2769765", "Latitudine": "40.5390474"}, {"Comune": "Taranto", "Provincia": "TARANTO", "Regione": "Puglia", "Nome": "Ospedale Militare Marittimo", "Anno inserimento": "2011", "OpenStreetMapID": "1376709969", "Longitudine": "17.2478859", "Latitudine": "40.473025"}, {"Comune": "Maracalagonis", "Provincia": "CAGLIARI", "Regione": "Sardegna", "Nome": "Guardia Medica", "Anno inserimento": "2015", "OpenStreetMapID": "3350116131", "Longitudine": "9.39967629999999", "Latitudine": "39.1566811"}, {"Comune": "Carbonia", "Provincia": "CARBONIA IGLESIAS", "Regione": "Sardegna", "Nome": "Ospedale Sirai", "Anno inserimento": "2014", "OpenStreetMapID": "1529348762", "Longitudine": "8.5073994", "Latitudine": "39.1859212"}, {"Comune": "Onani", "Provincia": "NUORO", "Regione": "Sardegna", "Nome": "Ambulatorio Onan\u00e0", "Anno inserimento": "2013", "OpenStreetMapID": "2544242086", "Longitudine": "9.4397632", "Latitudine": "40.4839217"}, {"Comune": "Santa Teresa Gallura", "Provincia": "OLBIA-TEMPIO", "Regione": "Sardegna", "Nome": "Guardia Medica", "Anno inserimento": "2014", "OpenStreetMapID": "2839889768", "Longitudine": "9.1895936", "Latitudine": "41.2388648"}, {"Comune": "Cabras", "Provincia": "ORISTANO", "Regione": "Sardegna", "Nome": "Pronto Soccorso 118", "Anno inserimento": "2014", "OpenStreetMapID": "3118753598", "Longitudine": "8.5275371", "Latitudine": "39.9263310999999"}, {"Comune": "Mogoro", "Provincia": "ORISTANO", "Regione": "Sardegna", "Nome": "Guardia medica", "Anno inserimento": "2014", "OpenStreetMapID": "2614920362", "Longitudine": "8.777039", "Latitudine": "39.6845783999999"}, {"Comune": "Alghero", "Provincia": "SASSARI", "Regione": "Sardegna", "Nome": "Ospedale Civile di Alghero", "Anno inserimento": "2011", "OpenStreetMapID": "1163107779", "Longitudine": "8.3193793", "Latitudine": "40.5796421"},