Comune,Provincia,Regione,Nome,Anno inserimento,OpenStreetMapID,Longitudine,Latitudine
Chieti,CHIETI,Abruzzo,Ospedale Clinicizzato Ss. Annunziata,2013,283246152,14.1531745,42.3659729
Castel del Monte,L'AQUILA,Abruzzo,Ambulatorio Medico,2014,2725529566,13.725294,42.365135
Castel di Sangro,L'AQUILA,Abruzzo,Presidio Ospedaliero,2011,1497306398,14.1166386,41.7760322999999
L'Aquila,L'AQUILA,Abruzzo,San Salvatore,2013,309825644,13.3536138999999,42.3668122999999
L'Aquila,L'AQUILA,Abruzzo,Villa Letizia,2015,3776497182,13.2955887,42.3761911
Pescocostanzo,L'AQUILA,Abruzzo,Guardia Medica,2014,2956884002,14.0648765,41.8869941
Pratola Peligna,L'AQUILA,Abruzzo,Croce Verde,2012,1604313268,13.8715157,42.0958985999999
Penne,PESCARA,Abruzzo,,2008,314756569,13.9190536999999,42.4503197
Popoli,PESCARA,Abruzzo,,2010,916151644,13.8274298,42.1763517999999
Silvi,TERAMO,Abruzzo,Presidio sanitario Silvi,2014,2962649633,14.0955482,42.5757668999999
Matera,MATERA,Basilicata,Guardia Medica,2013,2506049647,16.5893672,40.6782115999999
Pisticci,MATERA,Basilicata,Ospedale di Tinchi,2013,2442861478,16.6476907999999,40.3604071999999
Tricarico,MATERA,Basilicata,,2016,3923334792,16.148695,40.6180062999999
Forenza,POTENZA,Basilicata,Pronto Soccorso 118,2014,3213388604,15.859678,40.8566761
Potenza,POTENZA,Basilicata,Croce Rossa Italiana,2015,3739240400,15.8286253,40.6483515999999
Senise,POTENZA,Basilicata,ASL,2014,3127463474,16.2891252,40.147868
Venosa,POTENZA,Basilicata,,2009,394140270,15.8083677999999,40.9596147
Maida,CATANZARO,Calabria,Ambulatorio Medico,2015,2549611958,16.4076752,38.8887683
Acri,COSENZA,Calabria,Presidio ospedalaliere Beato Angelo,2014,2358340869,16.3893333,39.4914873
Campana,COSENZA,Calabria,,2012,2056879089,16.8291751,39.4123899
Cosenza,COSENZA,Calabria,Pronto Soccorso 118,2011,1409086932,16.2490369,39.2930342
Luzzi,COSENZA,Calabria,Poliambulatorio,2014,2272013482,16.2869891,39.4485466
Praia a Mare,COSENZA,Calabria,,2014,3134830524,15.7801509,39.9175627999999
San Fili,COSENZA,Calabria,Casa di cura Villa Igea,2015,3706948465,16.1544631999999,39.3443571999999
San Giovanni in Fiore,COSENZA,Calabria,Pronto Soccorso 118,2012,1863503079,16.6978337,39.2508770999999
Villapiana,COSENZA,Calabria,Farmacia D.ssa De Franco Rosa,2015,3623935700,16.4550118,39.8450475
Crotone,CROTONE,Calabria,ASP,2014,1584061157,17.1134306999999,39.0842737999999
Locri,REGGIO CALABRIA,Calabria,Ospedale di Locri,2009,447451624,16.2451443,38.2355114
Palmi,REGGIO CALABRIA,Calabria,Guardia Medica,2012,1717736577,15.8653719,38.3978575
Pazzano,REGGIO CALABRIA,Calabria,Guardia Medica,2013,1667062959,16.4533866,38.4746747
Polistena,REGGIO CALABRIA,Calabria,Presidio Ospedaliero ‘Santa Maria degli Ungheresi’,2014,2758237665,16.0763122,38.4096412
Taurianova,REGGIO CALABRIA,Calabria,Ospedale di Taurianova,2011,1362136151,16.0060956999999,38.3530828
Taurianova,REGGIO CALABRIA,Calabria,Veterinario,2013,2431244667,16.0146249,38.350867
Montella,AVELLINO,Campania,Misericordia Montella,2013,1436186943,15.0269470999999,40.8402059
Solopaca,BENEVENTO,Campania,Covermark Point camouflage,2015,3762483426,14.5483632,41.1923528
Telese,BENEVENTO,Campania,Fondazione Salvatore Maugeri,2011,1482097122,14.5332206,41.2210554999999
Castel Volturno,CASERTA,Campania,Clinica Pineta Grande,2013,1759748613,13.9530254,41.0177388999999
Agerola,NAPOLI,Campania,Guardia Medica,2013,2452231029,14.5402099,40.6305120999999
Arzano,NAPOLI,Campania,Distretto Sanitario,2013,2455948307,14.2602322,40.9108987999999
Boscotrecase,NAPOLI,Campania,"Pronto Soccorso, presidio ospedaliero di Boscotrecase",2013,2245070714,14.4524746,40.7671694
Capri,NAPOLI,Campania,Ospedale G. Capilupi Capri,2010,717588934,14.2368939999999,40.549795
Frattaminore,NAPOLI,Campania,Ospedale di Frattamaggiore San Giovanni di Dio,2010,944699669,14.2714487,40.94798
Gragnano,NAPOLI,Campania,,2014,3024493627,14.5226138,40.6955371
Ischia,NAPOLI,Campania,Istituto di Igiene mentale Buzziconia,2014,2985999241,13.9469513,40.7421136
Napoli,NAPOLI,Campania,AOU Federico II,2011,1180796146,14.2192083999999,40.8687589999999
Napoli,NAPOLI,Campania,Fatebenefratelli,2011,1563719945,14.1999184,40.8153
Napoli,NAPOLI,Campania,Santobono,2009,434788443,14.2317081,40.848941
Ottaviano,NAPOLI,Campania,Casa di cura Trusso,2014,1457151225,14.4705151999999,40.848373
Pollena Trocchia,NAPOLI,Campania,Presidio Sanitario Apicella,2015,3807622459,14.375031,40.8519028999999
Portici,NAPOLI,Campania,Guardia medica,2013,2311452925,14.3448227999999,40.8154946
Procida,NAPOLI,Campania,Ospedale Civile Albano Francescano,2009,536513332,14.0214450999999,40.7604388999999
San Gennaro Vesuviano,NAPOLI,Campania,Casa di cura La Madonnina,2014,2778473426,14.5274927,40.8602336
San Giuseppe Vesuviano,NAPOLI,Campania,Clinica Santa Lucia,2011,1462176201,14.4998188999999,40.8329737999999
Vico Equense,NAPOLI,Campania,Ospedale De Luca e Rossano,2012,686531791,14.4262087,40.6608317
Battipaglia,SALERNO,Campania,Clinica Salus,2011,1105817999,14.9923189,40.6056938999999
Battipaglia,SALERNO,Campania,Santa Maria della Speranza,2011,1089138199,14.9727736999999,40.6150969999999
Buonabitacolo,SALERNO,Campania,Guardia Medica,2013,2251338911,15.6222271,40.2699374
Cava de' Tirreni,SALERNO,Campania,,2014,3134153141,14.7108969,40.6948646999999
Celle di Bulgheria,SALERNO,Campania,Guardia Medica,2013,1704258810,15.4056887,40.0948555
Eboli,SALERNO,Campania,Campolongo Hospital,2011,1107808246,14.9216431,40.5241118
Oliveto Citra,SALERNO,Campania,San Francesco D'Assisi,2011,1089165860,15.2364827,40.6909374
Padula,SALERNO,Campania,Clinica Fischietti,2013,2251342126,15.6500094,40.2935810999999
Petina,SALERNO,Campania,Guardia medica,2015,3441511946,15.3732292,40.5327461999999
Polla,SALERNO,Campania,Ospedaliero ‘Luigi Curto’,2015,3441511947,15.5001764,40.5178228999999
Ravello,SALERNO,Campania,Amalfi Coast Hospital,2012,2089784335,14.6123181,40.6383873999999
Roccadaspide,SALERNO,Campania,Distretto ASL SA3 di Roccadaspide,2011,546428302,15.1921281,40.4256661
Roccadaspide,SALERNO,Campania,Ospedale di Roccadaspide,2011,450198361,15.1941453,40.424833
Torchiara,SALERNO,Campania,Guardia Medica,2014,2806634148,15.0609385,40.3179104
Bologna,BOLOGNA,Emilia-Romagna,Ambulatorio,2014,3190973943,11.3644883,44.4971699999999
Bologna,BOLOGNA,Emilia-Romagna,Casa di cura Villa Bellombra,2012,343166389,11.3392113,44.4810068
Bologna,BOLOGNA,Emilia-Romagna,Cliniche Dentali,2015,3810931037,11.3657854999999,44.4922959
Bologna,BOLOGNA,Emilia-Romagna,CUP Metropolitano,2013,1544177765,11.3422736,44.5019506
Bologna,BOLOGNA,Emilia-Romagna,Istituto Ortopedico Rizzoli,2013,1637036206,11.3415937,44.4808846
Bologna,BOLOGNA,Emilia-Romagna,Ospedale Militare,2009,474385036,11.3346146,44.4980979999999
Bologna,BOLOGNA,Emilia-Romagna,Poliambulatorio Zanolini,2016,3979367432,11.3573771,44.4947828
Bologna,BOLOGNA,Emilia-Romagna,Villa Erbosa,2013,440950148,11.3429924,44.5220546999999
Bologna,BOLOGNA,Emilia-Romagna,Villa Regina,2009,527877200,11.3487366,44.4808495999999
Bologna,BOLOGNA,Emilia-Romagna,Villa Torri (ospedale privato),2016,3982181498,11.3578055,44.4961394999999
Bologna,BOLOGNA,Emilia-Romagna,,2016,3942688743,11.3432172999999,44.5039911
Budrio,BOLOGNA,Emilia-Romagna,Centro Protesi INAIL,2012,1639926848,11.5085877,44.5340915
Casalecchio di Reno,BOLOGNA,Emilia-Romagna,Villa Chiara,2012,1653392145,11.2861572999999,44.4825779
Castel San Pietro Terme,BOLOGNA,Emilia-Romagna,Ospedale di Castel San Pietro Terme,2013,1631842426,11.5923048,44.3990411999999
Castiglione dei Pepoli,BOLOGNA,Emilia-Romagna,Casa di cura / Primo intervento,2015,3801840737,11.1556529,44.1406161
Crevalcore,BOLOGNA,Emilia-Romagna,,2012,2014837941,11.1487914,44.7209568999999
Crevalcore,BOLOGNA,Emilia-Romagna,,2013,2014837942,11.1505916,44.7213623
Galliera,BOLOGNA,Emilia-Romagna,,2012,1657346532,11.4361615,44.741964
Galliera,BOLOGNA,Emilia-Romagna,,2012,1657346929,11.4352066,44.7407714
Imola,BOLOGNA,Emilia-Romagna,Montecatone Rehabilitation Institute,2013,827782011,11.634473,44.3483105999999
Imola,BOLOGNA,Emilia-Romagna,Polo Territoriale Città di Imola (Ospedale Vecchio),2013,246493812,11.7048448999999,44.3550334999999
Loiano,BOLOGNA,Emilia-Romagna,Ospedale di Loiano,2010,691691088,11.3248823,44.2670967999999
San Giovanni in Persiceto,BOLOGNA,Emilia-Romagna,Ospedale Santissimo Salvatore,2012,412480085,11.1949352999999,44.632486
Vergato,BOLOGNA,Emilia-Romagna,Ospedale di Vergato,2010,811406978,11.1097290999999,44.2816357
Argenta,FERRARA,Emilia-Romagna,Ospedale Civile Mazzolani-Vandini,2013,2335579801,11.8346841,44.6118547
Bondeno,FERRARA,Emilia-Romagna,Ospedale Fratelli Borselli,2015,3361796794,11.4143206999999,44.8802925
Comacchio,FERRARA,Emilia-Romagna,Ospedale San Camillo,2013,1045853384,12.1901674999999,44.6958619999999
Copparo,FERRARA,Emilia-Romagna,Ospedale San Giuseppe,2013,2321777045,11.8286256,44.8955652
Ferrara,FERRARA,Emilia-Romagna,Centro di Medicina dello Sport,2014,2627789359,11.6121009999999,44.8499058
Ferrara,FERRARA,Emilia-Romagna,Guardia Medica - Servizi socio sanitari,2013,2107657889,11.59984,44.8188225
Lagosanto,FERRARA,Emilia-Romagna,Ospedale del Delta,2013,296858314,12.1224369,44.7757063
Portomaggiore,FERRARA,Emilia-Romagna,Ospedale Carlo Eppi,2013,2328753349,11.8107019999999,44.7001472
Tresigallo,FERRARA,Emilia-Romagna,,2012,2076093265,11.8977238,44.8142688
Cesenatico,FORLI',Emilia-Romagna,Ospedale di Cesenatico,2013,2163556775,12.4094093,44.1895874
Forli',FORLI',Emilia-Romagna,Pronto Soccorso 118,2012,303496338,12.0188659,44.2071121
Forlimpopoli,FORLI',Emilia-Romagna,,2010,725632990,12.1278935,44.1894694
Mercato Saraceno,FORLI',Emilia-Romagna,Ospedale Capelli,2012,1713423344,12.1947926,43.956301
Santa Sofia,FORLI',Emilia-Romagna,,2010,608646294,11.9016441,43.9429048
Savignano sul Rubicone,FORLI',Emilia-Romagna,,2010,611819914,12.4040304999999,44.0928195999999
Mirandola,MODENA,Emilia-Romagna,Santa Maria Bianca,2012,1775959558,11.0646339,44.8833825999999
Modena,MODENA,Emilia-Romagna,Casa di cura Villa Igea,2013,2151903121,10.8890923,44.6152160999999
Modena,MODENA,Emilia-Romagna,Ospedale sant'Agostino-Estense,2010,973891908,10.8723624,44.6045965
Modena,MODENA,Emilia-Romagna,Pronto Soccorso 118,2012,1538402646,10.9449217999999,44.6350005999999
Modena,MODENA,Emilia-Romagna,Pronto Soccorso 118,2013,2157172449,10.872077,44.6059935999999
Modena,MODENA,Emilia-Romagna,Villa Rosa,2012,1591090156,10.9192429,44.6311976
Vignola,MODENA,Emilia-Romagna,,2010,660681404,11.0107506,44.4828857999999
Borgo Val di Taro,PARMA,Emilia-Romagna,Santa Maria,2014,1455072062,9.7650202,44.4913537999999
Corniglio,PARMA,Emilia-Romagna,,2011,1253859525,10.0887647,44.4741550999999
Fidenza,PARMA,Emilia-Romagna,Assistenza Pubblica Fidenza,2014,2582319720,10.0387356,44.8485979
Fidenza,PARMA,Emilia-Romagna,Italian Red Cross,2013,2582316110,10.071196,44.856799
Fidenza,PARMA,Emilia-Romagna,Ospedale di Vaio,2013,441922074,10.0410822999999,44.8479985999999
Fontanellato,PARMA,Emilia-Romagna,Centro Cardinal Ferrari,2009,411882584,10.1777926999999,44.8804537999999
Fornovo di Taro,PARMA,Emilia-Romagna,,2012,1933333732,10.1042245,44.6941605999999
Medesano,PARMA,Emilia-Romagna,Croce rossa di Medesano,2012,1748577183,10.1372050999999,44.7590469
Parma,PARMA,Emilia-Romagna,Ospedale Maggiore,2012,441349778,10.3071753,44.8025499
Parma,PARMA,Emilia-Romagna,,2013,2242514882,10.3529564,44.7944116999999
Tizzano Val Parma,PARMA,Emilia-Romagna,Croce Rossa (Pronto Soccorso),2015,3384733654,10.2007578,44.5183579999999
Castel San Giovanni,PIACENZA,Emilia-Romagna,Ospedale civile,2012,924449750,9.4404728,45.0558049999999
Piacenza,PIACENZA,Emilia-Romagna,Defibrillatore (DAE),2014,3069871601,9.6820073,45.0392366999999
Piacenza,PIACENZA,Emilia-Romagna,,2011,1199871906,9.683082,45.0550582999999
Pianello Val Tidone,PIACENZA,Emilia-Romagna,Pia Casa Castagnetti,2011,1319945702,9.40304109999999,44.9459847999999
Rottofreno,PIACENZA,Emilia-Romagna,Casa della Salute,2013,2315622764,9.6035514,45.0557511
Bagnara di Romagna,RAVENNA,Emilia-Romagna,Poliambulatorio,2011,1166552706,11.8298134,44.3891447999999
Faenza,RAVENNA,Emilia-Romagna,Pronto Soccorso 118,2014,546597683,11.8741958,44.288232
Fusignano,RAVENNA,Emilia-Romagna,Presidio Ospedaliero,2012,1716107790,11.9565868,44.4682269999999
Lugo,RAVENNA,Emilia-Romagna,Ospedale Umberto I,2008,299846736,11.9211047,44.4165788999999
Massa Lombarda,RAVENNA,Emilia-Romagna,,2011,1529572493,11.8299831999999,44.4437596
Ravenna,RAVENNA,Emilia-Romagna,Casa di Cura Domus Nova,2009,568095443,12.1838618,44.4191658
Ravenna,RAVENNA,Emilia-Romagna,Casa di cura San Francesco,2012,528899706,12.2045274,44.4245768999999
Ravenna,RAVENNA,Emilia-Romagna,Ospedale Santa Maria delle Croci,2008,266550908,12.1904032,44.4106341999999
Castelnovo Ne' Monti,REGGIO EMILIA,Emilia-Romagna,Ospedale S. Anna,2012,1944314039,10.4084992,44.4343463
Montecchio Emilia,REGGIO EMILIA,Emilia-Romagna,Ospedale Ercole Franchini,2014,317847269,10.4498482,44.7064552
Sant'Ilario d'Enza,REGGIO EMILIA,Emilia-Romagna,USL Sant'Ilario d'Enza - Distretto Montecchio Emilia,2013,2244650201,10.4562589999999,44.7614226999999
Scandiano,REGGIO EMILIA,Emilia-Romagna,,2015,3519600792,10.6917807,44.5984071999999
Maiolo,RIMINI,Emilia-Romagna,,2015,3755965132,12.2946431,43.8569001999999
Rimini,RIMINI,Emilia-Romagna,Ospedale dei villeggianti,2012,1934414893,12.5913869999999,44.0592601999999
Monfalcone,GORIZIA,Friuli-Venezia Giulia,Pronto Soccoso 118,2015,2929114188,13.5198304,45.8154703
Roveredo in Piano,PORDENONE,Friuli-Venezia Giulia,RSA,2012,1835568061,12.6153815999999,46.0053029999999
Trieste,TRIESTE,Friuli-Venezia Giulia,Casa di cura Salus,2015,1482133308,13.7630526,45.6450723
Trieste,TRIESTE,Friuli-Venezia Giulia,Pronto Soccorso 118,2014,3217837479,13.7832197,45.6503015999999
Trieste,TRIESTE,Friuli-Venezia Giulia,Pronto Soccorso Cattinara,2014,3217873909,13.8260481,45.6334942
Cividale del Friuli,UDINE,Friuli-Venezia Giulia,Croce Rossa Italiana,2014,2288834785,13.4343509999999,46.0880066
Cividale del Friuli,UDINE,Friuli-Venezia Giulia,Hospital,2014,3218834559,13.4381678,46.0915954
Flaibano,UDINE,Friuli-Venezia Giulia,Ambulatorio,2014,2975045843,12.9844709,46.0570193
Palmanova,UDINE,Friuli-Venezia Giulia,Ospedale Civile di Palmanova,2014,621603401,13.3368888,45.9083741999999
RIVIGNANO TEOR,UDINE,Friuli-Venezia Giulia,,2011,1489951980,13.0416995999999,45.8731437
Tolmezzo,UDINE,Friuli-Venezia Giulia,Sant’Antonio Abate,2012,1918387355,13.0060085,46.4057669999999
Udine,UDINE,Friuli-Venezia Giulia,Dipartimento di Salute Mentale A.S.S. 4,2011,1462112178,13.2224860999999,46.0350255999999
Udine,UDINE,Friuli-Venezia Giulia,Istituto di Medicina Fisica e Riabilitazione Geriatrica,2012,1821567397,13.2364482,46.0503161
Aprilia,LATINA,Lazio,,2014,3225215833,12.6480248,41.5875208
Gaeta,LATINA,Lazio,Sala Mortuaria,2015,3400475533,13.5671298,41.2217872
Ponza,LATINA,Lazio,,2012,1798000412,12.9565573,40.9095105
Sezze,LATINA,Lazio,,2011,1468299924,13.0625091999999,41.5001086999999
Scandriglia,RIETI,Lazio,Farmacia,2016,3955223564,12.8437781999999,42.1641094
Albano Laziale,ROMA,Lazio,Ospedale Regina Apostolorum,2012,1602697582,12.6639206,41.7309316999999
Ariccia,ROMA,Lazio,Luigi Spolverini,2012,902522337,12.6756106,41.7234825999999
Ariccia,ROMA,Lazio,,2012,1602744969,12.6640601,41.7248103
Bracciano,ROMA,Lazio,Ospedale Pubblico Padre Pio,2010,911787320,12.1727931999999,42.0962476999999
Fiumicino,ROMA,Lazio,Ospedale Pediatrico Bambin Gesu,2010,251871299,12.1415678,41.9199926
Genzano di Roma,ROMA,Lazio,Istituto S.Giovanni Di Dio Fate Bene Fratelli,2010,262336538,12.67488,41.7004242
Genzano di Roma,ROMA,Lazio,Ospedale de Santis,2010,825972097,12.6786347999999,41.7041904
Ladispoli,ROMA,Lazio,POSTAZIONE 118,2014,2936704791,12.1269583,41.9333373999999
Monterotondo,ROMA,Lazio,Gonfalone,2012,1983448219,12.6213514999999,42.0504578999999
Morlupo,ROMA,Lazio,Croce Rossa Morlupo,2014,2819141133,12.4936349,42.1450363
Nemi,ROMA,Lazio,Villa delle Querce,2010,1035723052,12.7170153,41.7123557999999
Palombara Sabina,ROMA,Lazio,San Salvatore,2012,799400828,12.7624967999999,42.0688096
Rocca di Papa,ROMA,Lazio,ASL,2015,2440169911,12.7081994,41.7595966
Roma,ROMA,Lazio,ARES 118,2012,1196645632,12.4597917,41.8702420999999
Roma,ROMA,Lazio,Aurelia Hospital,2012,434692525,12.3983943,41.8870756999999
Roma,ROMA,Lazio,Distretto di salute mentale A.S.L. Roma Due,2014,2824672193,12.2707897999999,41.7325012
Roma,ROMA,Lazio,I.F.O. Istituto Regina Elena e Istituto San Gallo,2010,804465318,12.4486445,41.8023637
Roma,ROMA,Lazio,Ospedale Israelitico,2009,365299638,12.4284693,41.8357069999999
Roma,ROMA,Lazio,Ospedale San Giovanni Battista,2013,262114028,12.418452,41.8282625
Roma,ROMA,Lazio,Policlinico Tor Vergata,2011,924590499,12.6309392,41.8575792999999
Roma,ROMA,Lazio,Pronto Soccorso 118,2013,248528643,12.5403769,41.9216283
Roma,ROMA,Lazio,Pronto Soccorso 118,2013,2318096925,12.5102905,41.9070472
Roma,ROMA,Lazio,Villa Sandra,2013,428571538,12.4208257999999,41.8503399
Roma,ROMA,Lazio,Villa Stuart,2014,3034658080,12.4504208999999,41.9277165
Roma,ROMA,Lazio,Villa Tiberia,2012,1925831648,12.5578965,41.9461639
Tivoli,ROMA,Lazio,San Giovanni Evangelista,2013,748775623,12.8026335,41.9601200999999
Valmontone,ROMA,Lazio,Croce Rossa,2011,839208231,12.9209517,41.775094
Acquapendente,VITERBO,Lazio,Ospedale Santa Maria della Scala,2015,1732954478,11.8653758,42.7458734
Capranica,VITERBO,Lazio,Villa Paola,2008,246965787,12.1728644,42.2590381999999
Civita Castellana,VITERBO,Lazio,Ospedale Andosilla di Civita Castellana,2014,490454523,12.4205738,42.2902745999999
Orte,VITERBO,Lazio,Centro Salute Orte,2015,1818883486,12.3843922,42.4604088
Tarquinia,VITERBO,Lazio,Ospedale,2013,2128115697,11.759316,42.2500322
Tarquinia,VITERBO,Lazio,,2015,3680538082,11.7094812,42.2114143
Viterbo,VITERBO,Lazio,Bel Colle,2013,245879588,12.1234628,42.3942774
Campo Ligure,GENOVA,Liguria,Opera Pia San Michele Arcangelo,2010,603938253,8.6994053,44.5358518999999
Cicagna,GENOVA,Liguria,Ospedaletto,2014,3092330573,9.2431181,44.4055316999999
Cogoleto,GENOVA,Liguria,,2015,2766446026,8.6454868,44.389983
Genova,GENOVA,Liguria,Croce Rossa Italiana - Comitato Locale di Genova,2014,2775158723,8.982215,44.4012259
Genova,GENOVA,Liguria,Croce Rossa Italiana - Comitato Locale di Genova,2015,3149433919,8.9604908,44.4045232
Genova,GENOVA,Liguria,Hospice Gigi Ghirotti,2011,1427976790,8.9671273,44.4034882999999
Genova,GENOVA,Liguria,Ospedale Pastorino,2015,3784314302,8.90193099999999,44.463971
Genova,GENOVA,Liguria,Pronto Soccorso 118,2012,1655214176,8.9751824,44.408726
Genova,GENOVA,Liguria,Pronto Soccorso 118,2013,2286538221,8.7452734,44.4300105
Genova,GENOVA,Liguria,Pronto Soccorso Ostetrico,2014,1149150256,8.9698024,44.4080707
Genova,GENOVA,Liguria,Pubblica Assistenza Nerviese,2014,1743778682,9.0325477,44.384506
Imperia,IMPERIA,Liguria,,2011,441523881,8.0302185,43.8915847999999
Levanto,LA SPEZIA,Liguria,,2015,3281294381,9.6195244,44.1766018
Sarzana,LA SPEZIA,Liguria,,2012,1469458250,9.9495694,44.1214039999999
Finale Ligure,SAVONA,Liguria,P.A. Croce Verde Finalborgo,2014,2519502535,8.32926179999999,44.1762482
Savona,SAVONA,Liguria,Emergency Room,2010,861803093,8.491168,44.3193673999999
Savona,SAVONA,Liguria,RSA del Santuario,2015,368280172,8.43459539999999,44.3448295999999
Zuccarello,SAVONA,Liguria,Soccorso Cinofilo Liguria - Campo Addestramento,2014,2774569646,8.1217112,44.108102
Zuccarello,SAVONA,Liguria,Soccorso Cinofilo Liguria - Sede Operativa,2014,2774570245,8.1152096,44.1112545
Lovere,BERGAMO,Lombardia,,2012,868346215,10.0753892,45.8191971999999
Ponte San Pietro,BERGAMO,Lombardia,Policlinico San Pietro,2010,365883717,9.5755584,45.6982567
Romano di Lombardia,BERGAMO,Lombardia,Ospedale di Romano,2013,1937258648,9.7511046,45.5197848999999
Seriate,BERGAMO,Lombardia,,2013,2129666762,9.71816379999999,45.6831281999999
Spirano,BERGAMO,Lombardia,Ospizio,2012,1687457780,9.6667086,45.5815308999999
Spirano,BERGAMO,Lombardia,,2012,1687284647,9.6707534,45.5822743
Carpenedolo,BRESCIA,Lombardia,Casa Di Riposo S.Maria Castello,2012,1819494689,10.4265373,45.3658726
Gargnano,BRESCIA,Lombardia,Guardia Medica,2015,1996725069,10.6616525,45.6881891
Gavardo,BRESCIA,Lombardia,Pronto Soccorso 118,2015,3351874372,10.4408221,45.5883386
Lograto,BRESCIA,Lombardia,Ambulatorio medico,2013,2145385340,10.0540448999999,45.4822859
Manerbio,BRESCIA,Lombardia,Ospedale di Manerbio,2016,3939620367,10.1461288,45.3567305999999
Montichiari,BRESCIA,Lombardia,Spedali Civili Brescia Montichiari,2014,2148204881,10.4087873,45.4104243999999
Rodengo Saiano,BRESCIA,Lombardia,Pronto Soccorso Avis,2013,2242220553,10.1102536,45.5925099
Roe' Volciano,BRESCIA,Lombardia,Fondazione Casa di Riposo di Roà Volciano - ONL,2014,2833986032,10.503593,45.6221212
BELLAGIO,COMO,Lombardia,,2015,427724309,9.2610845,45.9882544999999
Cagno,COMO,Lombardia,Ambulatorio,2013,2445650941,8.9184692,45.8116904999999
Como,COMO,Lombardia,Villa Aprica,2010,429876745,9.06105999999999,45.8234998
Gravedona e Uniti,COMO,Lombardia,,2010,308452518,9.29968309999999,46.1423885999999
Menaggio,COMO,Lombardia,ASL Menaggio,2012,1740868546,9.23885119999999,46.0251391999999
Agnadello,CREMONA,Lombardia,,2014,3107550975,9.55848879999999,45.4449990999999
Castelverde,CREMONA,Lombardia,Opera Pia Redentore,2010,676278746,9.9957553,45.1877943
Crema,CREMONA,Lombardia,Ospedale Maggiore di Crema,2009,283583053,9.6804623,45.3540344
Cremona,CREMONA,Lombardia,Casa di cura Figlie di San Camillo,2015,2090726100,10.0127963,45.1450602999999
Cremona,CREMONA,Lombardia,Casa di cura San Camillo,2013,2090726090,10.0393849999999,45.1375778
Rivolta d'Adda,CREMONA,Lombardia,Ospedale di Rivolta d'Adda,2013,2593163397,9.5149233,45.4692407
Soresina,CREMONA,Lombardia,Guardia Medica,2015,3428462806,9.8559959,45.2893083
Sospiro,CREMONA,Lombardia,Clinica Sospiro,2010,628037181,10.1574466999999,45.1062061
Introbio,LECCO,Lombardia,A.S.L. Presidio di Introbio,2014,2621644202,9.4461681,45.9774907999999
San Benedetto Po,MANTOVA,Lombardia,Poli ambulatorio,2014,2845125874,10.9281653999999,45.0404422
Viadana,MANTOVA,Lombardia,ospitale civile,2015,3523075426,10.522617,44.9261345
Abbiategrasso,MILANO,Lombardia,Centro Diagnostico Fleming,2014,2606776652,8.9185105,45.399855
Bresso,MILANO,Lombardia,Centro Polifunzionale di Emergenza Croce Rossa Italiana,2013,2282025039,9.2055001,45.5334332999999
Cassano d'Adda,MILANO,Lombardia,,2012,892211002,9.5162469,45.5227481
Cernusco sul Naviglio,MILANO,Lombardia,Casa di Cura Anziani,2013,1641747487,9.3337591,45.5273425
Garbagnate Milanese,MILANO,Lombardia,Casa Riposo S. Pertini,2009,539588673,9.0791263,45.5848586999999
Garbagnate Milanese,MILANO,Lombardia,Ospedale S. Corona Garbagnate - Salvini,2010,539389756,9.096663,45.5816535
Milano,MILANO,Lombardia,Clinica Columbus,2014,281587946,9.1557776,45.472802
Milano,MILANO,Lombardia,Istituto Scientifico Ospedale San Luca,2014,2791491258,9.1450352,45.4718982999999
Milano,MILANO,Lombardia,Ospedal Buzzi,2009,541052343,9.1671338,45.4858497
Milano,MILANO,Lombardia,Ospedale Gaetano Pini,2015,260044832,9.1936546,45.4547689999999
Milano,MILANO,Lombardia,Ospedale Luigi Sacco,2008,275707305,9.1231233,45.5191512999999
Milano,MILANO,Lombardia,Ospedale San Giuseppe,2014,272877453,9.1715163,45.4630950999999
Milano,MILANO,Lombardia,Poliambulatorio Cesare Pozzo,2014,278208919,9.1673344,45.4998068
Milano,MILANO,Lombardia,Poliambulatorio Sassi,2014,2678697562,9.1720033,45.4668624999999
Milano,MILANO,Lombardia,S. Ambrogio,2015,2106322765,9.1533085,45.4843771999999
Milano,MILANO,Lombardia,S. Ambrogio-Prontosoccorso,2015,2106323310,9.1533694,45.4846087
Milano,MILANO,Lombardia,,2015,3373327796,9.0908557,45.4628809
Milano,MILANO,Lombardia,,2015,3459236688,9.1023876,45.5176284
Milano,MILANO,Lombardia,,2015,3459240713,9.1094515,45.5189789
Milano,MILANO,Lombardia,,2015,3459240740,9.0960731,45.5208012
Milano,MILANO,Lombardia,,2015,3735457853,9.1775637,45.4650281999999
Carate Brianza,MONZA E DELLA BRIANZA,Lombardia,Bianalisi s.r.l. Analisi Mediche,2015,3655972703,9.2351706,45.6749512
Carate Brianza,MONZA E DELLA BRIANZA,Lombardia,,2010,622572794,9.2395677,45.6762949
Limbiate,MONZA E DELLA BRIANZA,Lombardia,Villa Bianca - Multimedica,2011,1301169753,9.1166253,45.6049308999999
Lissone,MONZA E DELLA BRIANZA,Lombardia,Croce Verde Lissonese,2013,2429516858,9.2385227,45.6179409
Seregno,MONZA E DELLA BRIANZA,Lombardia,Centro Psico - Sociale Seregno,2010,905797149,9.2128389,45.6456687
Varedo,MONZA E DELLA BRIANZA,Lombardia,Varedo Soccorso,2014,2912402416,9.1489818,45.5966292999999
Casei Gerola,PAVIA,Lombardia,Casa di riposo San Fortunato,2015,3826599061,8.9263908,45.0056537
Casei Gerola,PAVIA,Lombardia,Studio Medico,2015,3826601913,8.92640379999999,45.0064526999999
Casorate Primo,PAVIA,Lombardia,,2012,1912780637,9.0145293,45.3087536999999
Godiasco,PAVIA,Lombardia,Fondazione Don Carlo Gnocchi - Centro Santa Mari,2013,2463395761,9.0271528,44.9103483999999
Godiasco,PAVIA,Lombardia,Villa Esperia - Casa di Cura e Riabilitazione,2013,2462838795,9.0347357,44.9061884999999
Montescano,PAVIA,Lombardia,Istituto per la Riabilitazione Maugeri,2009,600862762,9.2852387,45.0320789
Pavia,PAVIA,Lombardia,C.N.A.O. - Centro Nazionale di Adroterapia Oncol,2014,2852940512,9.1449718,45.2010537
Pavia,PAVIA,Lombardia,Clinica Città di Pavia,2010,645900549,9.1674404,45.1923356
Pavia,PAVIA,Lombardia,DEA,2014,2579533175,9.14741169999999,45.2007173
Pavia,PAVIA,Lombardia,Fondazione Salvatore Maugeri,2012,1628293885,9.141984,45.204487
Pavia,PAVIA,Lombardia,Istituto di Medicina del Lavoro,2010,681739610,9.1503742,45.1893171999999
Pavia,PAVIA,Lombardia,Istituto Santa Margherita,2014,3068442200,9.1722316,45.1953627999999
Stradella,PAVIA,Lombardia,Croce Rossa Italiana - Stradella,2014,2513622263,9.3246026,45.0664045999999
Varzi,PAVIA,Lombardia,Pronto Soccorso - OC Varzi,2014,2958452870,9.191632,44.8254669
Voghera,PAVIA,Lombardia,Ospedale Civile di Voghera - Accesso Pronto Socc,2013,1978580077,9.0169345,44.9954106
Voghera,PAVIA,Lombardia,Ospedale civile di voghera entrata posteriore,2013,2200633476,9.0145176,44.9947822999999
Voghera,PAVIA,Lombardia,,2015,2707160891,8.9987308,44.9899531
Tirano,SONDRIO,Lombardia,Struttura sanitaria di Tirano - Poliambulatori,2011,1456629565,10.1691012999999,46.2183835
Bisuschio,VARESE,Lombardia,Centro Diurno di Bisuschio,2015,3872646923,8.8805137,45.8828614
Cittiglio,VARESE,Lombardia,Ospedale di Cittiglio,2015,872506122,8.6681273,45.8940902
Cunardo,VARESE,Lombardia,Le Terrazze,2009,602211592,8.8064315,45.9346322
Luino,VARESE,Lombardia,Ospedale Luini Confalonieri,2016,1869897812,8.7457992,45.9961536
Saronno,VARESE,Lombardia,LABORATORIO ANALISI MEDICHE GESTIONE LABORATORI,2014,3216127174,9.0324228,45.6365880999999
Saronno,VARESE,Lombardia,Meditel clinica ambulatorio,2012,1907133077,9.03034869999999,45.6307852999999
Saronno,VARESE,Lombardia,Pronto Soccorso 118,2014,3215382613,9.0392051,45.6303691
Ancona,ANCONA,Marche,Ospedale Cardiologico ‘Giovanni Maria Lancisi’,2011,-1,13.4543783,43.6031352999999
Ancona,ANCONA,Marche,Ospedale Pediatrico ‘G. Salesi’,2012,-1,13.5324329999999,43.6167631
Arcevia,ANCONA,Marche,,2014,477370529,12.9414537,43.4997838
Castelfidardo,ANCONA,Marche,,2012,1869640800,13.5561048,43.4671201
Chiaravalle,ANCONA,Marche,Ospedale M. Montessori,2010,848204101,13.3156798999999,43.5979322999999
Cupramontana,ANCONA,Marche,Ambulatorio,2014,3063336686,13.1174991,43.4467888
Osimo,ANCONA,Marche,,2011,1326679520,13.4874057999999,43.4852721
Ostra Vetere,ANCONA,Marche,,2012,1604032038,13.0566341,43.6028436
Sirolo,ANCONA,Marche,Croce Azzurra,2015,3358233591,13.6124278,43.5227602
Ascoli Piceno,ASCOLI PICENO,Marche,Casa di Cura San Giuseppe,2010,595790313,13.6227292,42.8514697999999
Ascoli Piceno,ASCOLI PICENO,Marche,Casa di Cura Villa San Marco,2010,644135437,13.5881776,42.8492514
Offida,ASCOLI PICENO,Marche,Poliambulatorio di Offida (ex Ospedale Civile),2010,-1,13.6927564,42.9362922999999
Sant'Elpidio a Mare,FERMO,Marche,,2011,736622623,13.6887545999999,43.2342658
Caldarola,MACERATA,Marche,,2012,1613443811,13.2228651999999,43.1416218
Corridonia,MACERATA,Marche,Ospedale,2012,519018205,13.5079439,43.2476801999999
Fiastra,MACERATA,Marche,,2012,1863087827,13.1556685,43.0362778
Matelica,MACERATA,Marche,,2012,1839754075,13.0084794,43.2456328999999
Potenza Picena,MACERATA,Marche,Santo Stefano,2011,364424585,13.6932443,43.3694843999999
Recanati,MACERATA,Marche,Casa di riposo IRCER,2011,1413042519,13.5520569,43.4021716
Cagli,PESARO E URBINO,Marche,Ospedale Civile ‘A. Celli’,2015,-1,12.650819,43.5476529999999
Fossombrone,PESARO E URBINO,Marche,Ospedale Civile Fossombrone,2015,1435016188,12.8039235,43.6859261999999
Frontone,PESARO E URBINO,Marche,Infermeria FISPS,2013,2268215239,12.6926853,43.4797123999999
Mondolfo,PESARO E URBINO,Marche,Ospedale Bartolini,2014,2872559641,13.0950519,43.7517490999999
Pergola,PESARO E URBINO,Marche,Ospedale SS Donnino e Carlo,2013,2146013324,12.8302659,43.5686034
Pesaro,PESARO E URBINO,Marche,ASUR,2012,1858573726,12.8968298,43.89397
Urbania,PESARO E URBINO,Marche,DISTRETTO SANITARIO N 2 DI URBANIA,2014,3229583110,12.5189021,43.6705787
Campobasso,CAMPOBASSO,Molise,Ospedale Antonio Cardarelli,2014,2774114656,14.622096,41.5479965
Campobasso,CAMPOBASSO,Molise,Pronto Soccorso 118,2015,2672544500,14.6230189,41.5483807999999
Acqui Terme,ALESSANDRIA,Piemonte,Casa di cura Villa Igea,2014,3160224386,8.468272,44.6811659
Alessandria,ALESSANDRIA,Piemonte,Hospice Il Gelso,2015,3456136050,8.622921,44.9151657999999
Alessandria,ALESSANDRIA,Piemonte,Pronto Soccorso 118,2016,3184542612,8.6218314,44.9171105
Alessandria,ALESSANDRIA,Piemonte,SALUS,2015,3461258398,8.6121506,44.9124631999999
Casalnoceto,ALESSANDRIA,Piemonte,centro paolo VI,2010,916881543,8.9866706,44.9118616
Novi Ligure,ALESSANDRIA,Piemonte,Ospedale San Giacomo,2014,931802977,8.7928766,44.7587897
Nizza Monferrato,ASTI,Piemonte,Ospedale Santo Spirito,2013,1177271563,8.3550006,44.772987
Ponderano,BIELLA,Piemonte,Ospedale degli Infermi,2015,3185119556,8.0627657,45.5433767999999
Borgo San Dalmazzo,CUNEO,Piemonte,ASL Cuneo n.1,2011,1445651410,7.4979258,44.3330721999999
Boves,CUNEO,Piemonte,Azienda Sanitaria Locale cn1 Centralino,2011,1448031743,7.5483669,44.3296001
Bra,CUNEO,Piemonte,Casa di cura privata Città di BRA,2013,1870099273,7.8586648,44.6968374
Busca,CUNEO,Piemonte,Azienda Sanitaria Locale cn1,2015,1446961749,7.4727258,44.5145968
Caraglio,CUNEO,Piemonte,Ospedale di Caraglio ASL CN1,2015,1803194882,7.4242149,44.4148532999999
Chiusa di Pesio,CUNEO,Piemonte,Azienda Sanitaria Locale cn1,2012,1448063765,7.6794273,44.3212575
Chiusa di Pesio,CUNEO,Piemonte,Residenza per anziani ‘La Meridiana’,2011,-1,7.6721978,44.3262740999999
Dogliani,CUNEO,Piemonte,,2013,2276789081,7.943788,44.5307856
Entracque,CUNEO,Piemonte,Centro Socio Assistenziale San Michele,2011,1446273813,7.3972604,44.23857
Fossano,CUNEO,Piemonte,Ospedale Maggiore,2010,1010828999,7.723091,44.5477880999999
Peveragno,CUNEO,Piemonte,Azienda Sanitaria Locale cn1 Prenotazioni,2012,1447981808,7.6225698,44.3306715
Peveragno,CUNEO,Piemonte,Croce Rossa Italiana Delegazione di Peveragno,2012,1447984261,7.6225068,44.3308615999999
Robilante,CUNEO,Piemonte,Istituto Climatico,2012,1512114795,7.5207276,44.2879456
Rodello,CUNEO,Piemonte,Casa di cura ‘La Residenza’,2015,-1,8.05940599999999,44.6312270999999
Villanova Mondovi',CUNEO,Piemonte,Azienda Sanitaria locale cn1,2011,1447884401,7.7619399,44.3446904999999
Ghemme,NOVARA,Piemonte,Guardia Medica di Ghemme,2013,2425413775,8.4195055,45.5980636999999
Ghemme,NOVARA,Piemonte,Ospedale di Ghemme,2013,2425413776,8.4196422,45.5981326
Nebbiuno,NOVARA,Piemonte,Croce Rossa Italiana - Volontari del Vergante,2014,2844465977,8.5233905,45.7949059
Novara,NOVARA,Piemonte,Farmacia dell'Ospedale,2012,2039728477,8.6224712,45.4440688999999
Novara,NOVARA,Piemonte,Pronto Soccorso ASL Novara,2015,3385724639,8.6226392,45.4419759
Borgaro Torinese,TORINO,Piemonte,CRI,2012,1287732721,7.7037961,45.1418643
Castellamonte,TORINO,Piemonte,Ospedale Civile di Castellamonte,2013,506720441,7.7084619,45.3813835999999
Chieri,TORINO,Piemonte,,2016,618065063,7.8231999,45.0111603
Chivasso,TORINO,Piemonte,,2012,965879060,7.8947829,45.191878
Collegno,TORINO,Piemonte,Guardia Medica,2015,3521390394,7.5763491,45.0861935
Giaveno,TORINO,Piemonte,Ospedale Civile di Giaveno,2012,1013180642,7.3563635,45.0419307
Orbassano,TORINO,Piemonte,Ospedale San Luigi - Emergency,2015,3538127650,7.5589817,45.0292178999999
Pianezza,TORINO,Piemonte,IRM,2014,2975475598,7.5565018,45.0956290999999
Pomaretto,TORINO,Piemonte,Ospedale di Pomaretto,2012,1582482972,7.1825635,44.9564888
Rivoli,TORINO,Piemonte,Ospedale di Rivoli - Emergency,2015,3521386459,7.5214476,45.0599378
Torino,TORINO,Piemonte,Azienda Asl TO2 Circoscrizione 7,2015,3342035128,7.703882,45.0689313
Torino,TORINO,Piemonte,Ospedale CTO - Emergency,2015,3538149953,7.6739743,45.0336034999999
Torino,TORINO,Piemonte,Ospedale Koelliker,2013,2524447312,7.6546618,45.0410119
Torino,TORINO,Piemonte,Ospedale Maria Vittoria - Emergency,2015,3538127633,7.6562946,45.0825839
Torino,TORINO,Piemonte,Ospedale Martini - Emergency,2015,3538127618,7.6279499,45.0666155999999
Torino,TORINO,Piemonte,Ospedale Mauriziano - Emergency,2015,3538149967,7.6650676,45.0506382
Torino,TORINO,Piemonte,Ospedale Molinette - Emergency,2015,3538127651,7.6739771,45.0415203
Torino,TORINO,Piemonte,Ospedale Sant'Anna - Emergency,2015,3538127652,7.6733251,45.0358947
Torino,TORINO,Piemonte,Poliambulatorio ASL TO1,2015,3896547668,7.6492885,45.0155181
Torino,TORINO,Piemonte,Presidio Ospedaliero Major,2015,3352096005,7.6999591,45.0687707
Torino,TORINO,Piemonte,Presidio sanitario ‘Vittorio Valletta’,2015,3858667665,7.6307308,45.0157095
Torino,TORINO,Piemonte,Pronto soccorso pediatrico,2015,3451061182,7.6740616,45.0344377999999
Torino,TORINO,Piemonte,RSA Cardinal Ballestrero,2015,3858824567,7.6202533,45.0178237
Torino,TORINO,Piemonte,,2014,3149295783,7.6354798,45.0668493
Venaria Reale,TORINO,Piemonte,Ospedale Venaria - Emergency,2015,3538322174,7.6286369,45.1336585
Vinovo,TORINO,Piemonte,Croce Verde,2010,872054634,7.6391411,44.9529839
Cannobio,VERBANIA,Piemonte,,2012,1378611012,8.6925088,46.0598409999999
Omegna,VERBANIA,Piemonte,Ospedale Madonna del Popolo,2012,1313078620,8.41180209999999,45.8729382
Pieve Vergonte,VERBANIA,Piemonte,Distretto Sanitario ASL 14,2014,3196013184,8.2702021,46.0068349
Pieve Vergonte,VERBANIA,Piemonte,Veterinario,2015,3726707110,8.2710291,46.0035681
Gattinara,VERCELLI,Piemonte,ASL Vercelli,2013,2294634302,8.3729093,45.6089230999999
Varallo,VERCELLI,Piemonte,Casa Serena,2014,2632598165,8.26873559999999,45.8093866999999
Vercelli,VERCELLI,Piemonte,Ambulatorio Veterinario,2014,2943298582,8.4435872,45.3063867999999
Vercelli,VERCELLI,Piemonte,Ambulatorio Veterinario,2014,2968790196,8.40574649999999,45.326245
Vercelli,VERCELLI,Piemonte,Clinica Santa Rita,2015,2872066082,8.4223064,45.3123737
Vercelli,VERCELLI,Piemonte,Guardia Medica,2014,2814119513,8.41426809999999,45.3173648
Vercelli,VERCELLI,Piemonte,Piastra Polifunzionale,2014,2809752409,8.4162027,45.3178459
Vercelli,VERCELLI,Piemonte,Pronto Soccorso 118,2014,2800570544,8.41493769999999,45.3177852999999
Vercelli,VERCELLI,Piemonte,Studio di fisioterapia clinica Adriano Reis,2014,3035467608,8.4146477,45.3206489
Bari,BARI,Puglia,Ambulatorio medico - Croce Rossa Italiana,2013,1433747566,16.8410082999999,41.1362237
Bari,BARI,Puglia,Ambulatorio Primo Soccorso - First Aid - Croce Rossa,2013,1412486593,16.7642512,41.1344701
Bari,BARI,Puglia,ex C.T.O,2013,616872053,16.8431138999999,41.1362618
Bari,BARI,Puglia,First Aid - university,2013,2124054724,16.8687365,41.1200706999999
Bari,BARI,Puglia,Mater Dei,2011,1291624453,16.8855399,41.0979427999999
Bari,BARI,Puglia,Prontosoccorso policlinico,2015,3874499030,16.8573930999999,41.1130830999999
Gioia del Colle,BARI,Puglia,Centro Nazionale Riabilitativo per Hanseniani,2013,2137514980,16.8217375,40.7423361
Gravina in Puglia,BARI,Puglia,Guardia Medica,2015,3354040309,16.4209533,40.8169898
Gravina in Puglia,BARI,Puglia,Pronto Soccorso 118,2015,3342451831,16.4207353,40.8170746999999
Polignano a Mare,BARI,Puglia,Punto di primo intervento,2012,567243847,17.2253763999999,40.9932633
Ruvo di Puglia,BARI,Puglia,Diagnostica s.r.l.,2015,3536974724,16.4847086,41.1183678
Ruvo di Puglia,BARI,Puglia,,2009,597396898,16.4872419999999,41.1201512
Sammichele di Bari,BARI,Puglia,Guardia Medica,2013,2393726733,16.9536635999999,40.8912005999999
Terlizzi,BARI,Puglia,Pronto Soccorso 118,2008,323970296,16.5344082,41.1311840999999
Andria,BARLETTA ANDRIA TRANI,Puglia,Guardia Medica,2013,418759967,16.3046502,41.2361859999999
Minervino Murge,BARLETTA ANDRIA TRANI,Puglia,Ospedale Civile,2010,667117500,16.0763594,41.0922843
Spinazzola,BARLETTA ANDRIA TRANI,Puglia,,2010,675635464,16.0841554,40.973668
Trani,BARLETTA ANDRIA TRANI,Puglia,San Nicola Pellegrino,2009,387221877,16.4296805,41.2674853999999
Latiano,BRINDISI,Puglia,guardia medica,2013,2097713322,17.7098434,40.5502857
San Donaci,BRINDISI,Puglia,,2012,1811247846,17.9223843999999,40.4484835
Castelnuovo della Daunia,FOGGIA,Puglia,Clinica De Luca,2013,2288509818,15.1126501,41.5781265999999
Cerignola,FOGGIA,Puglia,Tatarella,2012,293551107,15.9188158,41.2721098
Foggia,FOGGIA,Puglia,Clinica Colonnello D'Avanzo,2009,351142744,15.5454797,41.4535564999999
Foggia,FOGGIA,Puglia,,2010,617182522,15.5238564,41.4578484999999
Foggia,FOGGIA,Puglia,,2012,351138881,15.5243927999999,41.4557337999999
Lesina,FOGGIA,Puglia,Pronto Soccorso Estivo,2011,1241563267,15.3374535,41.9079112
Lucera,FOGGIA,Puglia,,2009,429375430,15.3309558,41.5132047
Monte Sant'Angelo,FOGGIA,Puglia,,2010,806505348,15.9699458,41.7055842999999
San Marco in Lamis,FOGGIA,Puglia,Ospedale di San Marco in Lamis,2013,2293620765,15.6410544,41.712051
San Nicandro Garganico,FOGGIA,Puglia,a.s.l. foggia,2013,2156948851,15.5765802,41.8316439
San Severo,FOGGIA,Puglia,Ospedale Teresa Masselli Mascia,2011,1240376403,15.3866207999999,41.6905298
San Severo,FOGGIA,Puglia,Ospedale Teresa Masselli Mascia,2011,1240376442,15.3831875999999,41.6896484999999
Vieste,FOGGIA,Puglia,,2009,534609447,16.1620513,41.8767422999999
Galatina,LECCE,Puglia,Clinica S. Francesco,2013,2154757521,18.1666193,40.1730550999999
Lecce,LECCE,Puglia,Clinica Petrucciani,2014,2347705644,18.1967463999999,40.3556213999999
Nardo',LECCE,Puglia,Ospedale Civile Giuseppe Sambiasi,2011,966256936,18.0345763,40.1721508999999
Salice Salentino,LECCE,Puglia,Poliambulatorio San Francesco,2013,2504509546,17.9661371999999,40.379654
Trepuzzi,LECCE,Puglia,Pronto Soccorso 118,2015,3918739670,18.1220150999999,40.4968918
Castellaneta,TARANTO,Puglia,Ospedale castellaneta,2014,2808373547,16.9344983999999,40.6343675
Grottaglie,TARANTO,Puglia,ASL,2013,2454234307,17.4369438,40.546253
Grottaglie,TARANTO,Puglia,Pronto Soccorso 118,2013,2374710402,17.4261942,40.5389849999999
Martina Franca,TARANTO,Puglia,Civile di Martina Franca,2010,590052359,17.3436248999999,40.7058443
Statte,TARANTO,Puglia,Ospedale G. Moscati,2011,1375792171,17.2769765,40.5390474
Taranto,TARANTO,Puglia,Ospedale Militare Marittimo,2011,1376709969,17.2478859,40.473025
Maracalagonis,CAGLIARI,Sardegna,Guardia Medica,2015,3350116131,9.39967629999999,39.1566811
Carbonia,CARBONIA IGLESIAS,Sardegna,Ospedale Sirai,2014,1529348762,8.5073994,39.1859212
Onani,NUORO,Sardegna,Ambulatorio Onanà,2013,2544242086,9.4397632,40.4839217
Santa Teresa Gallura,OLBIA-TEMPIO,Sardegna,Guardia Medica,2014,2839889768,9.1895936,41.2388648
Cabras,ORISTANO,Sardegna,Pronto Soccorso 118,2014,3118753598,8.5275371,39.9263310999999
Mogoro,ORISTANO,Sardegna,Guardia medica,2014,2614920362,8.777039,39.6845783999999
Alghero,SASSARI,Sardegna,Ospedale Civile di Alghero,2011,1163107779,8.3193793,40.5796421
Alghero,SASSARI,Sardegna,Ospedale Marino Regina Margherita,2011,1163107774,8.3110707,40.5800302999999
Agrigento,AGRIGENTO,Sicilia,Ambulatorio medico,2013,2341948097,13.5530913,37.3280666
Agrigento,AGRIGENTO,Sicilia,Servizio continuità assistenziale (ex Guardia Medica),2016,2142455389,13.5934218,37.2689196999999
Agrigento,AGRIGENTO,Sicilia,Servizio continuità assistenziale (ex Guardia Medica),2016,2142455406,13.5170852,37.3536074
Agrigento,AGRIGENTO,Sicilia,Servizio continuità assistenziale (ex Guardia Medica),2016,2176931644,13.6079157,37.352611
Alessandria della Rocca,AGRIGENTO,Sicilia,Servizio continuità assistenziale (ex Guardia Medica),2016,2142455468,13.4544162,37.570602
Aragona,AGRIGENTO,Sicilia,Servizio continuità assistenziale (ex Guardia Medica),2016,2142455414,13.6156551,37.4059006
Bivona,AGRIGENTO,Sicilia,Servizio continuità assistenziale (ex Guardia Medica),2016,2142455475,13.4396524999999,37.6165327
Burgio,AGRIGENTO,Sicilia,Servizio continuità assistenziale (ex Guardia Medica),2016,2142455473,13.2866786,37.6003547999999
Caltabellotta,AGRIGENTO,Sicilia,Servizio continuità assistenziale (ex Guardia Medica),2016,2142455467,13.2343965,37.5596825
Caltabellotta,AGRIGENTO,Sicilia,Servizio continuità assistenziale (ex Guardia Medica),2016,2142455469,13.2140257,37.5739076999999
Camastra,AGRIGENTO,Sicilia,Servizio continuità assistenziale (ex Guardia Medica),2016,2142455387,13.7927189,37.2540022
Campobello di Licata,AGRIGENTO,Sicilia,Servizio continuità assistenziale (ex Guardia Medica),2016,2142455386,13.9147367,37.2511372
Canicatti',AGRIGENTO,Sicilia,Servizio continuità assistenziale (ex Guardia Medica),2016,2142455407,13.8530953,37.3596624999999
Casteltermini,AGRIGENTO,Sicilia,Servizio continuità assistenziale (ex Guardia Medica),2016,2142455466,13.6374496,37.5395947
Castrofilippo,AGRIGENTO,Sicilia,Servizio continuità assistenziale (ex Guardia Medica),2016,2142455405,13.7500024,37.3482971
Cattolica Eraclea,AGRIGENTO,Sicilia,Servizio continuità assistenziale (ex Guardia Medica),2016,2142455409,13.2853604999999,37.3933687999999
Cattolica Eraclea,AGRIGENTO,Sicilia,Servizio continuità assistenziale (ex Guardia Medica),2016,2142455418,13.3887674,37.4409684
Cianciana,AGRIGENTO,Sicilia,Servizio continuità assistenziale (ex Guardia Medica),2016,2142455465,13.4356313,37.5201866999999
Comitini,AGRIGENTO,Sicilia,Servizio continuità assistenziale (ex Guardia Medica),2016,2142455415,13.6433857,37.4078816999999
Favara,AGRIGENTO,Sicilia,Servizio continuità assistenziale (ex Guardia Medica),2016,2142455398,13.6536475,37.3134043
Joppolo Giancaxio,AGRIGENTO,Sicilia,Servizio continuità assistenziale (ex Guardia Medica),2016,2142455408,13.5525482,37.3870937
Lampedusa e Linosa,AGRIGENTO,Sicilia,Servizio continuità assistenziale (ex Guardia Medica),2016,2142455381,12.8631898,35.858643
Licata,AGRIGENTO,Sicilia,Servizio continuità assistenziale (ex Guardia Medica),2016,2142455382,13.9265338,37.1071642
Licata,AGRIGENTO,Sicilia,Servizio continuità assistenziale (ex Guardia Medica),2016,2142455383,13.9803119,37.1114758
Lucca Sicula,AGRIGENTO,Sicilia,Servizio continuità assistenziale (ex Guardia Medica),2016,2142455471,13.3061624,37.5782516
Menfi,AGRIGENTO,Sicilia,Servizio continuità assistenziale (ex Guardia Medica),2016,2142455474,12.9739600999999,37.6016844
Montallegro,AGRIGENTO,Sicilia,Servizio continuità assistenziale (ex Guardia Medica),2016,2142455410,13.3510849999999,37.3958092
Montevago,AGRIGENTO,Sicilia,Servizio continuità assistenziale (ex Guardia Medica),2016,2142455480,12.9852513999999,37.7051795
Naro,AGRIGENTO,Sicilia,Servizio continuità assistenziale (ex Guardia Medica),2016,2142455391,13.79851,37.2890088999999
Palma di Montechiaro,AGRIGENTO,Sicilia,Servizio continuità assistenziale (ex Guardia Medica),2016,2142455384,13.7174271999999,37.1723057
Palma di Montechiaro,AGRIGENTO,Sicilia,Servizio continuità assistenziale (ex Guardia Medica),2016,2142455385,13.7733633999999,37.1870127999999
Porto Empedocle,AGRIGENTO,Sicilia,Servizio continuità assistenziale (ex Guardia Medica),2016,2142455390,13.5287427,37.2884257999999
Porto Empedocle,AGRIGENTO,Sicilia,Servizio continuità assistenziale (ex Guardia Medica),2016,2142455395,13.4945932,37.2897575
Racalmuto,AGRIGENTO,Sicilia,Servizio continuità assistenziale (ex Guardia Medica),2016,2142455412,13.7058705,37.4035927999999
Racalmuto,AGRIGENTO,Sicilia,Servizio continuità assistenziale (ex Guardia Medica),2016,2142455413,13.7389367999999,37.4050346
Raffadali,AGRIGENTO,Sicilia,Servizio continuità assistenziale (ex Guardia Medica),2016,2142455411,13.5352809999999,37.4007318999999
Ravanusa,AGRIGENTO,Sicilia,Servizio continuità assistenziale (ex Guardia Medica),2016,2142455388,13.9662311,37.2673308999999
Realmonte,AGRIGENTO,Sicilia,Servizio continuità assistenziale (ex Guardia Medica),2016,2142455397,13.4627172,37.3062667
Realmonte,AGRIGENTO,Sicilia,Servizio continuità assistenziale (ex Guardia Medica),2016,2142455396,13.4560229,37.2968515
Ribera,AGRIGENTO,Sicilia,Servizio continuità assistenziale (ex Guardia Medica),2016,2142455417,13.2381521,37.4338014
Ribera,AGRIGENTO,Sicilia,Servizio continuità assistenziale (ex Guardia Medica),2016,2142455437,13.2689317,37.4917425
Sambuca di Sicilia,AGRIGENTO,Sicilia,Servizio continuità assistenziale (ex Guardia Medica),2016,2142455478,13.1217065,37.6590520999999
San Biagio Platani,AGRIGENTO,Sicilia,Servizio continuità assistenziale (ex Guardia Medica),2016,2142455446,13.5244830999999,37.5070476
San Giovanni Gemini,AGRIGENTO,Sicilia,Servizio continuità assistenziale (ex Guardia Medica),2016,2142455477,13.641061,37.6287694999999
Sant'Angelo Muxaro,AGRIGENTO,Sicilia,Servizio continuità assistenziale (ex Guardia Medica),2016,2142455433,13.5431489,37.4796424999999
Santa Elisabetta,AGRIGENTO,Sicilia,Servizio continuità assistenziale (ex Guardia Medica),2016,2142455416,13.5557476,37.4309259999999
Santa Margherita di Belice,AGRIGENTO,Sicilia,Servizio continuità assistenziale (ex Guardia Medica),2016,2142455479,13.0178242999999,37.6902271
Santo Stefano Quisquina,AGRIGENTO,Sicilia,Servizio continuità assistenziale (ex Guardia Medica),2016,2142455476,13.4914137,37.6257647999999
Siculiana,AGRIGENTO,Sicilia,Servizio continuità assistenziale (ex Guardia Medica),2016,2142455403,13.4266387,37.3368226999999
Villafranca Sicula,AGRIGENTO,Sicilia,Servizio continuità assistenziale (ex Guardia Medica),2016,2142455472,13.2907182,37.5868619
Caltanissetta,CALTANISSETTA,Sicilia,Ospedale San Elia,2014,2713620698,14.031268,37.4904604999999
Aci Castello,CATANIA,Sicilia,Guardia Medica,2013,2412380560,15.1435147,37.5557462
Adrano,CATANIA,Sicilia,,2010,471508926,14.8361234999999,37.6627993
Biancavilla,CATANIA,Sicilia,,2009,460454172,14.8710676,37.6463362
Caltagirone,CATANIA,Sicilia,Gravina,2008,312672489,14.5161653,37.2229377999999
Catania,CATANIA,Sicilia,NAS Sigonella Hospital,2012,1956584790,14.961779,37.4589938
Nicolosi,CATANIA,Sicilia,Analisi Service,2015,3809824961,15.0266296,37.6132928999999
Pedara,CATANIA,Sicilia,AUSL3 Azienda Unità Sanitaria Locale,2011,1240849873,15.0648021,37.6132458
Valverde,CATANIA,Sicilia,Guardia Medica,2015,3404194550,15.1200057,37.5763790999999
Zafferana Etnea,CATANIA,Sicilia,Guardia medica,2011,1214187752,15.1071161,37.6925516
Enna,ENNA,Sicilia,Umberto 1à,2012,529486348,14.3016159,37.5538206
Piazza Armerina,ENNA,Sicilia,Ospedale Michele Chiello,2012,1664732380,14.3778352999999,37.3980058
Villarosa,ENNA,Sicilia,,2016,1819438513,14.1674527,37.5881814
Lipari,MESSINA,Sicilia,Ambulance,2010,759589649,14.9572284,38.4159251
Lipari,MESSINA,Sicilia,Centro Diriabilitazione Neuropsicomotoria,2013,2320159644,14.9671983999999,38.4860295
Messina,MESSINA,Sicilia,Casa di Cura Villa Igea,2013,1665759739,15.5399096,38.1667064999999
Messina,MESSINA,Sicilia,Ospedale Papardo,2014,1647430093,15.5967591999999,38.2638655
Messina,MESSINA,Sicilia,Villa Salus,2012,1678302426,15.5493963999999,38.1995864
San Piero Patti,MESSINA,Sicilia,P. T. E.,2015,3120527367,14.9678948,38.0515857999999
Alia,PALERMO,Sicilia,,2012,1796961952,13.7162107,37.7823009
Bagheria,PALERMO,Sicilia,poliambulatorio USL,2012,1879138982,13.510396,38.0846556999999
Bagheria,PALERMO,Sicilia,Punto di primo intervento,2015,3563294320,13.5138631999999,38.0858904999999
Bagheria,PALERMO,Sicilia,USL medicina di base,2012,2018466720,13.5135612999999,38.0848543
Bagheria,PALERMO,Sicilia,USL servizio veterinario,2012,2018466722,13.5134352,38.0848415
Cefalu',PALERMO,Sicilia,Pronto Soccorso 118,2015,3298106707,14.0125629,38.0282211
Cefalu',PALERMO,Sicilia,,2013,2460987631,14.0121306,38.0281515
Corleone,PALERMO,Sicilia,ASP office,2016,3970918223,13.2973239,37.8166279
Corleone,PALERMO,Sicilia,Hospital,2016,3970921973,13.2985349999999,37.8167011999999
Geraci Siculo,PALERMO,Sicilia,Medical Assistance,2015,3442497762,14.1543654,37.8579286
Palermo,PALERMO,Sicilia,Casa di cura Demma,2016,3942565372,13.3431618,38.1214998
Palermo,PALERMO,Sicilia,Casa di cura Noto Pasqualino,2016,3942564368,13.3436821,38.1218922999999
Pollina,PALERMO,Sicilia,Guardia Medica Finale,2013,2264288522,14.1623265,38.0191672999999
San Giuseppe Jato,PALERMO,Sicilia,guardia medica,2015,3874635259,13.1810873,37.9672689
Ragusa,RAGUSA,Sicilia,Guardia Medica,2015,3855605457,14.7469217,36.9261631999999
Ragusa,RAGUSA,Sicilia,Guardia Medica,2015,2249465540,14.5511038,36.7875581999999
Santa Croce Camerina,RAGUSA,Sicilia,Medlab,2015,3777530657,14.5233080999999,36.8261135999999
Santa Croce Camerina,RAGUSA,Sicilia,Radiologia Dott. Gerratana,2015,3796102194,14.5230505,36.8267407
Buscemi,SIRACUSA,Sicilia,Guardia medica,2014,3136636640,14.8821068,37.0866856999999
Lentini,SIRACUSA,Sicilia,Flight Line Clinic,2012,1956529094,14.9176512999999,37.4096759
Paceco,TRAPANI,Sicilia,,2012,1962100566,12.5596843,37.9850618999999
Bibbiena,AREZZO,Toscana,Ospedale del Casentino,2011,1392433677,11.8203519,43.6991966
Montevarchi,AREZZO,Toscana,La Gruccia,2010,729191106,11.5542070999999,43.5463207999999
Sansepolcro,AREZZO,Toscana,,2012,703139826,12.1534255,43.5712480999999
Bagno a Ripoli,FIRENZE,Toscana,Ospedale S. Maria Annunziata,2012,1753752061,11.3057879,43.7314568999999
Borgo San Lorenzo,FIRENZE,Toscana,Pronto Soccorso 118,2009,534447403,11.3746642,43.9585304
FIGLINE E INCISA VALDARNO,FIRENZE,Toscana,Frate Sole,2013,1047704499,11.4644949999999,43.6124127
FIGLINE E INCISA VALDARNO,FIRENZE,Toscana,Ospedale Serristori,2013,2284593680,11.4763664999999,43.6128999
FIGLINE E INCISA VALDARNO,FIRENZE,Toscana,USL 20/b,2013,2284594838,11.4768708,43.611727
FIGLINE E INCISA VALDARNO,FIRENZE,Toscana,,2010,384732739,11.4772102,43.6143726
Firenze,FIRENZE,Toscana,Centro Sangue,2010,938223605,11.2489725,43.8067457
Firenze,FIRENZE,Toscana,CTO,2012,715801424,11.2483331999999,43.8012749
Firenze,FIRENZE,Toscana,Ospedale di Santa Maria Nuova,2014,3111530034,11.2598805,43.7733027
Firenze,FIRENZE,Toscana,Ospedale Piero Palagi,2014,3111530402,11.2721172,43.7552524999999
Firenze,FIRENZE,Toscana,Ospedale Santa Chiara,2011,1268791137,11.2528887,43.7797546999999
Firenze,FIRENZE,Toscana,,2014,3078986384,11.2860780999999,43.7723097
Greve in Chianti,FIRENZE,Toscana,Opsedale Rosa Libri,2011,1088821976,11.3170544,43.5868968999999
Pontassieve,FIRENZE,Toscana,Dentist,2012,1938471740,11.3923957999999,43.7909676
Pontassieve,FIRENZE,Toscana,Dentist,2012,1938471753,11.3981224,43.7867814
Reggello,FIRENZE,Toscana,,2013,2241546770,11.4856143,43.6280259999999
Scandicci,FIRENZE,Toscana,Humanitas,2012,533694525,11.185848,43.7524276999999
Sesto Fiorentino,FIRENZE,Toscana,Azienda Usl 10 Di Firenze,2013,2209929226,11.2051424,43.8318202
Grosseto,GROSSETO,Toscana,Infermeria,2015,3598244294,11.0075093,42.7129124
Grosseto,GROSSETO,Toscana,Ospedale della misericordia,2015,755792646,11.1252189,42.7772203999999
Grosseto,GROSSETO,Toscana,Pronto Soccorso 118,2015,3670208706,11.12538,42.7758838999999
Massa Marittima,GROSSETO,Toscana,,2012,1962503841,10.8901768,43.0427395999999
Bibbona,LIVORNO,Toscana,first aid (temp. Doctor),2014,3053392453,10.5261020999999,43.2494193
Marciana Marina,LIVORNO,Toscana,Guardia Medica - Medical Assistance,2014,465614224,10.1965584,42.8065839
Piombino,LIVORNO,Toscana,Villa Marina,2012,1755087444,10.5108589,42.9397499
Porto Azzurro,LIVORNO,Toscana,Guardia Medica - Medical Assistance,2009,464313412,10.3925251,42.766167
Portoferraio,LIVORNO,Toscana,,2009,424383977,10.319724,42.8158783
Camaiore,LUCCA,Toscana,Ospedale Versilia,2008,256836182,10.2239337,43.9143154
Capannori,LUCCA,Toscana,,2014,2068231105,10.6005673,43.7749317
Lucca,LUCCA,Toscana,Casa di Cura Santa Zita,2013,2302888821,10.5015937,43.8461172
Lucca,LUCCA,Toscana,Fisioterapia,2013,1798963327,10.5072563999999,43.8526783
Lucca,LUCCA,Toscana,Presidio Osepdaliero Piana di Lucca,2012,248898429,10.5175368,43.850653199999996
Massarosa,LUCCA,Toscana,Misericordia,2012,1549453127,10.3414108,43.8671920999999
Massarosa,LUCCA,Toscana,Misericordia di Stiava,2012,1997884009,10.3181159,43.8982658999999
Montecarlo,LUCCA,Toscana,Misericordia di Montecarlo,2012,1925413884,10.6616526,43.8478754
Pontremoli,MASSA-CARRARA,Toscana,,2010,925697734,9.88548409999999,44.3852917
Cascina,PISA,Toscana,Guardia Medica,2013,2430869207,10.5480705,43.6754339
Cascina,PISA,Toscana,Studi Medici Associati,2012,1811225653,10.4820691,43.6875521999999
Castelfranco di Sotto,PISA,Toscana,Distretto socio-sanitario Galleno,2013,2354813963,10.7179363,43.7734383
Montecatini Val di Cecina,PISA,Toscana,Guardia Medica,2013,2360521272,10.7442943,43.3347866
Pisa,PISA,Toscana,Casa di Cura San Rossore,2015,1854247433,10.3751525,43.7243896
Pisa,PISA,Toscana,Centro Medico,2013,1798962277,10.4297048,43.6969536
Pisa,PISA,Toscana,IRCCS Stella Maris,2011,1279453276,10.2926132,43.6076826999999
Pisa,PISA,Toscana,Pronto Soccorso 118,2015,3512154941,10.4420062999999,43.7041741999999
San Miniato,PISA,Toscana,,2011,1558352065,10.8610905,43.6809555
Terricciola,PISA,Toscana,ASL 5 Unità Cure Primarie,2012,1668362969,10.7017319,43.5404121999999
Vecchiano,PISA,Toscana,Pronto Soccorso 118,2014,2634502193,10.268302,43.7943076999999
Lamporecchio,PISTOIA,Toscana,Casa della Salute,2014,2940769836,10.8948114999999,43.8151555
Prato,PRATO,Toscana,Casa di cura Villa Fiorita,2013,2357663100,11.097007,43.9073773
Abbadia San Salvatore,SIENA,Toscana,,2012,1964160950,11.6737226,42.8821068999999
Montepulciano,SIENA,Toscana,Ospedali Riuniti Valdichiana Senese,2012,1715089667,11.8258823,43.1189973999999
Poggibonsi,SIENA,Toscana,Ospedale dell'Alta Val d'Elsa,2009,263362557,11.1485238,43.4515356
Torrita di Siena,SIENA,Toscana,Consultorio Antares,2013,2524317095,11.7712469,43.1663094999999
Badia,BOLZANO,Trentino-Alto Adige,Ambulatorio dr. Spechtenhauser /medical facility,2013,2359091864,11.9047269999999,46.5835706
Caldaro sulla Strada del Vino,BOLZANO,Trentino-Alto Adige,,2015,2749772744,11.2443209999999,46.4132760999999
Corvara in Badia,BOLZANO,Trentino-Alto Adige,medical facility,2013,2347041428,11.8558119,46.5543853
Corvara in Badia,BOLZANO,Trentino-Alto Adige,,2014,2347103160,11.8736456,46.5494088
Merano,BOLZANO,Trentino-Alto Adige,Privatklinik Martinsbrunn,2015,1026932691,11.148008,46.6851818
Sarentino,BOLZANO,Trentino-Alto Adige,Spital Sarnthein,2012,1597396516,11.3560953999999,46.6422598999999
Terlano,BOLZANO,Trentino-Alto Adige,Sanitatssprengel,2014,2756012609,11.2495727999999,46.5282079999999
Baselga di Pine',TRENTO,Trentino-Alto Adige,Poliambulatorio comunale - Medici Generici - Ped,2013,2590602528,11.2438351999999,46.127906
Denno,TRENTO,Trentino-Alto Adige,Guardia Medica,2013,2590418162,11.0490774,46.2747699
Levico Terme,TRENTO,Trentino-Alto Adige,Poliambulatorio di Levico Terme,2012,558635245,11.3041043,46.0095327
Mezzana,TRENTO,Trentino-Alto Adige,,2010,333785005,10.8099609999999,46.3014622999999
Mezzolombardo,TRENTO,Trentino-Alto Adige,Guardia Medica,2014,2590431393,11.0946842,46.2130371
Mori,TRENTO,Trentino-Alto Adige,Guardia Medica,2013,2590424734,10.9813247,45.8511470999999
Pergine Valsugana,TRENTO,Trentino-Alto Adige,Ex Villa Rosa,2015,474985898,11.2202728,46.0746601999999
Segonzano,TRENTO,Trentino-Alto Adige,Guardia Medica,2013,2503395889,11.2585751,46.1874416
Taio,TRENTO,Trentino-Alto Adige,Guardia Medica,2013,2590432394,11.0661112999999,46.3203408999999
Trento,TRENTO,Trentino-Alto Adige,Guardia Medica,2015,2590424266,11.1318091999999,46.0571618
Trento,TRENTO,Trentino-Alto Adige,Studio Odontoiatrico,2015,3637095818,11.0579763,46.0705601
Tres,TRENTO,Trentino-Alto Adige,Medico di base,2015,3374682876,11.0952360999999,46.3215841999999
Bastia,PERUGIA,Umbria,Centro ASL,2013,2429716499,12.5571549,43.0668318
Citta' di Castello,PERUGIA,Umbria,Ospedale di Città di Castello,2011,703223321,12.2532186,43.4742692
Foligno,PERUGIA,Umbria,Nuovo Ospedale San Giovanni Battista,2013,912145480,12.6872607,42.9587009999999
Perugia,PERUGIA,Umbria,Clinica Liotti,2011,1490046090,12.3809919,43.1129334
Perugia,PERUGIA,Umbria,Santa Maria della Misericordia,2014,1576533901,12.3551991,43.0793338
Umbertide,PERUGIA,Umbria,Ospedale Civile di Umbertide,2012,1660262133,12.3270041,43.3096016
Umbertide,PERUGIA,Umbria,,2010,740708584,12.3298203,43.3094252
Castel Viscardo,TERNI,Umbria,ASL,2014,3149436864,12.0183022,42.7701769
Narni,TERNI,Umbria,Presidio ospedaliero Narni,2014,2683339413,12.5216236,42.5170644
Orvieto,TERNI,Umbria,Ospedale Santa Maria della Stella,2014,3204463936,12.1452659999999,42.7318943
San Venanzo,TERNI,Umbria,U.S.L. Distretto Socio Sanitario,2013,2550482145,12.2640484,42.8666522999999
Brusson,AOSTA,Valle d'Aosta,Casa Di Cura Per La Salute Della Mente,2012,1821113074,7.737931,45.7550189999999
Brusson,AOSTA,Valle d'Aosta,Continuità Assistenziale (Ex Guardia Medica) ASL,2015,1297316345,7.7331594,45.7581873
Donnas,AOSTA,Valle d'Aosta,Poliambulatorio di Donnas,2015,1761381053,7.7735943,45.6033874
Saint-Christophe,AOSTA,Valle d'Aosta,Servizio Ausili AUSL Valle d'Aosta,2014,2349121564,7.351557,45.7384841
Valtournenche,AOSTA,Valle d'Aosta,Centro Traumatologico,2015,3536731833,7.6290055,45.9359348999999
Verres,AOSTA,Valle d'Aosta,Clinica Veterinaria di Verres,2015,3740528835,7.6914639,45.6642525
Belluno,BELLUNO,Veneto,Obitorio,2015,3641023482,12.2007344,46.1385527999999
Belluno,BELLUNO,Veneto,,2016,4018363478,12.2235256,46.1587280999999
Cortina d'Ampezzo,BELLUNO,Veneto,Codivilla,2013,2369237060,12.1316503,46.5544499
Feltre,BELLUNO,Veneto,Ospedale Civile,2013,633282730,11.9080314,46.0231374
Cittadella,PADOVA,Veneto,,2010,780271043,11.7873608999999,45.6475154999999
Montagnana,PADOVA,Veneto,Ospedale di Montagnana,2012,1600857902,11.4594703,45.2369577999999
Padova,PADOVA,Veneto,Centro di foniatria,2014,2954858744,11.8601055,45.3994548
Padova,PADOVA,Veneto,Croce Rossa,2014,2963468734,11.916031,45.4118223999999
Padova,PADOVA,Veneto,Dipartimento Socio Sanitario ai Colli,2014,3124119148,11.8426598999999,45.3990431
Padova,PADOVA,Veneto,Villa Maria,2010,1005263880,11.860234,45.4100839999999
Piazzola sul Brenta,PADOVA,Veneto,Distretto Sanitario,2015,3735141153,11.781439,45.5404135
Selvazzano Dentro,PADOVA,Veneto,Ulss di Selvazzano,2011,1540781487,11.7911497999999,45.3880316999999
Castelfranco Veneto,TREVISO,Veneto,Sanitaria,2013,2094785552,11.9273227,45.6743870999999
Conegliano,TREVISO,Veneto,La Nostra Famiglia,2010,894283612,12.2863221,45.8955333999999
Crespano del Grappa,TREVISO,Veneto,SUEM 118  GUARDIA MEDICA,2013,1388471311,11.8374924,45.828192
Monastier di Treviso,TREVISO,Veneto,Casa di Cura Giovanni XXIII,2013,582732952,12.4272826999999,45.6561838
Pieve di Soligo,TREVISO,Veneto,Farmacia Schiratti di Schiratti Samuele,2011,1461910080,12.1735662999999,45.9002298999999
Preganziol,TREVISO,Veneto,Park Villa Napoleon - casa di cura neuropsichiatrica,2011,1330957451,12.2355854999999,45.5917468999999
Villorba,TREVISO,Veneto,Casa di riposo e Centro diurno Gino e Pierina,2013,2348043780,12.2523651,45.7330504999999
Mira,VENEZIA,Veneto,Consultorio USL 13,2011,1120722373,12.1694818999999,45.4500043
San Michele al Tagliamento,VENEZIA,Veneto,Azienda ULSS 10,2013,1482481262,12.9933925,45.7635231
San Michele al Tagliamento,VENEZIA,Veneto,First Aid,2014,1963439942,13.0174407,45.6300827999999
Venezia,VENEZIA,Veneto,Istituto Carlo Steeb,2010,895559828,12.3274805,45.3557088
Albaredo d'Adige,VERONA,Veneto,Usll20,2011,1519319976,11.2757858,45.3137437999999
Bardolino,VERONA,Veneto,Distretto Sanitario,2015,835482201,10.7202912,45.5535677
Bardolino,VERONA,Veneto,Medical Clinic,2010,824408688,10.726559,45.5503180999999
Brenzone,VERONA,Veneto,Infermeria di Casa Madre delle Piccole Suore del sacro cuore,2016,3988496870,10.7520214,45.6879625999999
Garda,VERONA,Veneto,White Cross ambulance,2011,671619973,10.7102933,45.5748583
Garda,VERONA,Veneto,,2014,817771347,10.7158393,45.5818385999999
Grezzana,VERONA,Veneto,Studio Medico Associato,2015,3364333150,11.0214506,45.5210367
Malcesine,VERONA,Veneto,Ospedale di Malcesine,2013,2339818894,10.798017,45.7514857
Peschiera del Garda,VERONA,Veneto,,2014,2700238572,10.7063691,45.4438078
San Martino Buon Albergo,VERONA,Veneto,,2010,497557583,11.0851501,45.4164595
Verona,VERONA,Veneto,Pronto Soccorso 118,2014,1332150759,10.9818643999999,45.4530457999999
Verona,VERONA,Veneto,Pronto Soccorso 118,2014,1490269001,10.9923544999999,45.4028974
Villafranca di Verona,VERONA,Veneto,Ospedale Marcello Magalini,2014,1804969211,10.8395978999999,45.3479676999999
Arsiero,VICENZA,Veneto,Guardia Medica,2013,1493334562,11.3511819,45.8041224999999
Asiago,VICENZA,Veneto,Ospedale civile di Asiago,2013,2378284620,11.5226057999999,45.8623035999999
Bassano del Grappa,VICENZA,Veneto,Ospedale San Bassiano,2013,304230205,11.7450068,45.7480759999999
Bassano del Grappa,VICENZA,Veneto,Vecchio Ospedale Psichiatrico,2011,1559078833,11.7376824,45.7577965999999
Caldogno,VICENZA,Veneto,Centro Diagnostico Veneto,2011,338916073,11.492417,45.6140148
Roana,VICENZA,Veneto,Istituto Ortopedico Elioterapico,2015,875665169,11.4378455999999,45.8805960999999
Santorso,VICENZA,Veneto,Nuovo Ospedale Santorso,2015,1650859424,11.4151094,45.7275753999999
Schio,VICENZA,Veneto,Croce Rossa Italiana - Comitato Locale di Schio,2014,2620114768,11.3567889,45.7210651999999
Schio,VICENZA,Veneto,Defibrillatore (DAE) 24H,2015,3498514926,11.3583833,45.7127375
Thiene,VICENZA,Veneto,Ospedale di Thiene,2012,444692252,11.4703862999999,45.7111007999999
Vicenza,VICENZA,Veneto,Casa di Cura privata Eretenia,2015,3284592570,11.5458614,45.5437818999999
Vicenza,VICENZA,Veneto,Centro Diurno Anziani,2016,3971286697,11.5892918999999,45.5417387999999
Vicenza,VICENZA,Veneto,Guardia Medica - Servizio di continuità assiste,2013,276392454,11.5245774999999,45.5360264999999
Vicenza,VICENZA,Veneto,ingresso Palazzina Uffici dell'Ospedale,2011,257360634,11.5467192999999,45.5556650999999
